연번,행정동명,시설명,도로명주소,지번주소,건물층수,위도,경도,관리기관명,담당부서명,관리기관전화번호,데이터기준일자
1,금호읍,교대1리경로당,경상북도 영천시 금호읍 교대2길 9,경상북도 영천시 금호읍 교대리 185-19,2,35.9328553,128.8759029,경상북도 영천시청,사회복지과,054-330-6178,2025-11-17
2,금호읍,교대2리경로당,경상북도 영천시 금호읍 교대용대길 7-2,경상북도 영천시 금호읍 교대리 88-1,2,35.9337543,128.8716295,경상북도 영천시청,사회복지과,054-330-6178,2025-11-17
3,금호읍,우방타운경로당,경상북도 영천시 금호읍 덕성길 20,경상북도 영천시 금호읍 교대리 410,1,35.9327349,128.869526,경상북도 영천시청,사회복지과,054-330-6178,2025-11-17
4,금호읍,덕성리경로당,경상북도 영천시 금호읍 금호로 56-40,경상북도 영천시 금호읍 덕성리 232,2,35.9295355,128.8676315,경상북도 영천시청,사회복지과,054-330-6178,2025-11-17
5,금호읍,태성맨션경로당,경상북도 영천시 금호읍 금호로 88(지하사무실),경상북도 영천시 금호읍 덕성리 101-4,1,35.9308584,128.8717562,경상북도 영천시청,사회복지과,054-330-6178,2025-11-17
6,금호읍,금호읍분회경로당,경상북도 영천시 금호읍 금호로 102-6,경상북도 영천시 금호읍 덕성리 100-5,1,35.9310387,128.8728652,경상북도 영천시청,사회복지과,054-330-6178,2025-11-17
7,금호읍,성천리경로당,경상북도 영천시 금호읍 성천안길 12,경상북도 영천시 금호읍 성천리 252-1,1,35.9446431,128.8723321,경상북도 영천시청,사회복지과,054-330-6178,2025-11-17
8,금호읍,대미1리경로당,경상북도 영천시 금호읍 대동마을길 191-4,경상북도 영천시 금호읍 대미리 531-1,1,35.962068,128.8815312,경상북도 영천시청,사회복지과,054-330-6178,2025-11-17
9,금호읍,대미2리경로당,경상북도 영천시 금호읍 미동길 5-10,경상북도 영천시 금호읍 대미리 965-2,1,35.9471093,128.8805559,경상북도 영천시청,사회복지과,054-330-6178,2025-11-17
10,금호읍,석섬리경로당,경상북도 영천시 금호읍 돌섬2길 80-1,경상북도 영천시 금호읍 석섬리 92,1,35.9514552,128.8913174,경상북도 영천시청,사회복지과,054-330-6178,2025-11-17
11,금호읍,원제리경로당,경상북도 영천시 금호읍 원제1길 27,경상북도 영천시 금호읍 원제리 432,1,35.9422922,128.8963528,경상북도 영천시청,사회복지과,054-330-6178,2025-11-17
12,금호읍,윤성모닝타운경로당,경상북도 영천시 금호읍 원제2길 16-8,경상북도 영천시 금호읍 원제리 20,2,35.9428316,128.899787,경상북도 영천시청,사회복지과,054-330-6178,2025-11-17
13,금호읍,냉천1리경로당,경상북도 영천시 금호읍 거여로 77-3,경상북도 영천시 금호읍 냉천리 225-4,2,35.933176,128.8858704,경상북도 영천시청,사회복지과,054-330-6178,2025-11-17
14,금호읍,냉천2리경로당,경상북도 영천시 금호읍 금호로 190-12,경상북도 영천시 금호읍 냉천리 431,2,35.9334542,128.8830963,경상북도 영천시청,사회복지과,054-330-6178,2025-11-17
15,금호읍,신월리경로당,경상북도 영천시 금호읍 신월안길 1-1,경상북도 영천시 금호읍 신월리 524-1,2,35.9352211,128.9036372,경상북도 영천시청,사회복지과,054-330-6178,2025-11-17
16,금호읍,봉죽1리경로당,경상북도 영천시 금호읍 봉일길 50-3,경상북도 영천시 금호읍 봉죽리 369,2,35.9361286,128.9118719,경상북도 영천시청,사회복지과,054-330-6178,2025-11-17
17,금호읍,관정1리경로당,경상북도 영천시 금호읍 관황길 31-1,경상북도 영천시 금호읍 관정리 173-2,1,35.9284497,128.9107942,경상북도 영천시청,사회복지과,054-330-6178,2025-11-17
18,금호읍,관정2리경로당,경상북도 영천시 금호읍 관황길 6,경상북도 영천시 금호읍 관정리 261-1,1,35.9287792,128.907981,경상북도 영천시청,사회복지과,054-330-6178,2025-11-17
19,금호읍,황정리경로당,경상북도 영천시 금호읍 관황길 49-4,경상북도 영천시 금호읍 황정리 412-1,1,35.9275615,128.9127476,경상북도 영천시청,사회복지과,054-330-6178,2025-11-17
20,금호읍,구암리경로당,경상북도 영천시 금호읍 구암길 135-6,경상북도 영천시 금호읍 구암리 1131-2,2,35.9089284,128.9368336,경상북도 영천시청,사회복지과,054-330-6178,2025-11-17
21,금호읍,구암리새못밑경로당,경상북도 영천시 금호읍 칠백로 604-6,경상북도 영천시 금호읍 구암리 958-1,1,35.9151625,128.929773,경상북도 영천시청,사회복지과,054-330-6178,2025-11-17
22,금호읍,약남1리경로당,경상북도 영천시 금호읍 칠백로 487-15,경상북도 영천시 금호읍 약남리 528,1,35.9052566,128.9271955,경상북도 영천시청,사회복지과,054-330-6178,2025-11-17
23,금호읍,약남2리경로당,경상북도 영천시 금호읍 가야길 92,경상북도 영천시 금호읍 약남리 238-3,1,35.9003854,128.9308807,경상북도 영천시청,사회복지과,054-330-6178,2025-11-17
24,금호읍,대곡1리경로당,경상북도 영천시 금호읍 대곡길 31-6,경상북도 영천시 금호읍 대곡리 687,1,35.8920444,128.9203092,경상북도 영천시청,사회복지과,054-330-6178,2025-11-17
25,금호읍,대곡2리경로당,경상북도 영천시 금호읍 대배길 50,경상북도 영천시 금호읍 대곡리 403-1,1,35.8957585,128.9237196,경상북도 영천시청,사회복지과,054-330-6178,2025-11-17
26,금호읍,호남리경로당,경상북도 영천시 금호읍 대승지길 44,경상북도 영천시 금호읍 호남리 200-2,1,35.8993732,128.9151788,경상북도 영천시청,사회복지과,054-330-6178,2025-11-17
27,금호읍,어은리경로당,경상북도 영천시 금호읍 어은길 160,경상북도 영천시 금호읍 어은리 202-2,1,35.9177645,128.8990133,경상북도 영천시청,사회복지과,054-330-6178,2025-11-17
28,금호읍,오계1리경로당,경상북도 영천시 금호읍 종동길 12-1,경상북도 영천시 금호읍 오계리 259-3,1,35.9056676,128.8896637,경상북도 영천시청,사회복지과,054-330-6178,2025-11-17
29,금호읍,오계2리경로당,경상북도 영천시 금호읍 사근달길 75-1,경상북도 영천시 금호읍 오계리 546-2,2,35.9027495,128.8960507,경상북도 영천시청,사회복지과,054-330-6178,2025-11-17
30,금호읍,원기리경로당,경상북도 영천시 금호읍 창산길 142-5,경상북도 영천시 금호읍 원기리 395,1,35.9071687,128.8844814,경상북도 영천시청,사회복지과,054-330-6178,2025-11-17
31,금호읍,신대리경로당,경상북도 영천시 금호읍 신대길 28,경상북도 영천시 금호읍 신대리 64-1,1,35.9102985,128.868721,경상북도 영천시청,사회복지과,054-330-6178,2025-11-17
32,금호읍,남성리경로당,경상북도 영천시 금호읍 남성길 83-4,경상북도 영천시 금호읍 남성리 304-3,1,35.9023031,128.8735787,경상북도 영천시청,사회복지과,054-330-6178,2025-11-17
33,금호읍,삼호1리경로당,경상북도 영천시 금호읍 창산길 89,경상북도 영천시 금호읍 삼호리 727-2,1,35.9090028,128.8791973,경상북도 영천시청,사회복지과,054-330-6178,2025-11-17
34,금호읍,삼호2리경로당,경상북도 영천시 금호읍 대구대길 106,경상북도 영천시 금호읍 신대리 308-5,2,35.9215329,128.8702433,경상북도 영천시청,사회복지과,054-330-6178,2025-11-17
35,금호읍,부향마을 경로당,경상북도 영천시 금호읍 돌섬1길 11-99,경상북도 영천시 금호읍 대미리 1138,1,35.9531984,128.882586,경상북도 영천시청,사회복지과,054-330-6178,2025-11-17
36,청통면,청통면 분회 경로당,경상북도 영천시 청통면 청통초등길 13,경상북도 영천시 청통면 치일리 13,2,35.9917564,128.8234162,경상북도 영천시청,사회복지과,054-330-6178,2025-11-17
37,청통면,호당2리 경로당,경상북도 영천시 청통면 방아지길 1,경상북도 영천시 청통면 호당리 638-4,2,35.9963214,128.8952635,경상북도 영천시청,사회복지과,054-330-6178,2025-11-17
38,청통면,대평리 경로당,경상북도 영천시 청통면 대평길 22,경상북도 영천시 청통면 대평리 693-6,2,35.9657721,128.8648314,경상북도 영천시청,사회복지과,054-330-6178,2025-11-17
39,청통면,송천리 경로당,경상북도 영천시 청통면 관방길 35,경상북도 영천시 청통면 송천리 379-2,1,35.9734337,128.8191456,경상북도 영천시청,사회복지과,054-330-6178,2025-11-17
40,청통면,치일1리 경로당,경상북도 영천시 청통면 치일길 4,경상북도 영천시 청통면 치일리 590-1,1,35.9909802,128.7985082,경상북도 영천시청,사회복지과,054-330-6178,2025-11-17
41,청통면,애련리 경로당,경상북도 영천시 청통면 애련길 233,경상북도 영천시 청통면 애련리 198-1,1,36.0031013,128.798291,경상북도 영천시청,사회복지과,054-330-6178,2025-11-17
42,청통면,계지1리 경로당,경상북도 영천시 청통면 망지1길 9,경상북도 영천시 청통면 계지리 120,1,36.0092584,128.8232854,경상북도 영천시청,사회복지과,054-330-6178,2025-11-17
43,청통면,신원리 경로당,경상북도 영천시 청통면 거조길 328,경상북도 영천시 청통면 신원리 422-3,1,36.0177489,128.7771625,경상북도 영천시청,사회복지과,054-330-6178,2025-11-17
44,청통면,신학1리 경로당,경상북도 영천시 청통면 청통로 632,경상북도 영천시 청통면 신학리 566-3,1,35.9953079,128.8258532,경상북도 영천시청,사회복지과,054-330-6178,2025-11-17
45,청통면,호당1리 경로당,경상북도 영천시 청통면 호당1길 55,경상북도 영천시 청통면 호당리 342,1,35.9918398,128.8895058,경상북도 영천시청,사회복지과,054-330-6178,2025-11-17
46,청통면,신덕1리 경로당,경상북도 영천시 청통면 덕동길 40,경상북도 영천시 청통면 신덕리 221,1,35.9716086,128.8639881,경상북도 영천시청,사회복지과,054-330-6178,2025-11-17
47,청통면,신덕2리 경로당,경상북도 영천시 청통면 성골길 111-29,경상북도 영천시 청통면 신덕리 729-2,1,35.9724836,128.8548204,경상북도 영천시청,사회복지과,054-330-6178,2025-11-17
48,청통면,원촌1리 경로당,경상북도 영천시 청통면 창마길 16,경상북도 영천시 청통면 원촌리 516-125,2,35.9845431,128.8258253,경상북도 영천시청,사회복지과,054-330-6178,2025-11-17
49,청통면,용천리 경로당,경상북도 영천시 청통면 용호길 28,경상북도 영천시 청통면 용천리 391,1,36.0223677,128.828755,경상북도 영천시청,사회복지과,054-330-6178,2025-11-17
50,청통면,죽정리 경로당,경상북도 영천시 청통면 구정길 123-1,경상북도 영천시 청통면 죽정리 36,1,35.9766943,128.8326682,경상북도 영천시청,사회복지과,054-330-6178,2025-11-17
51,청통면,원촌2리 경로당,경상북도 영천시 청통면 오천길 20,경상북도 영천시 청통면 원촌리 289-1,1,35.988308,128.8218533,경상북도 영천시청,사회복지과,054-330-6178,2025-11-17
52,청통면,보성리 경로당,경상북도 영천시 청통면 청통로 373,경상북도 영천시 청통면 보성리 145-1,1,35.9898412,128.8523271,경상북도 영천시청,사회복지과,054-330-6178,2025-11-17
53,청통면,치일2리 경로당,경상북도 영천시 청통면 부흥길 29,경상북도 영천시 청통면 치일리 583-16,1,35.9909828,128.8207,경상북도 영천시청,사회복지과,054-330-6178,2025-11-17
54,청통면,우천2리 경로당,경상북도 영천시 청통면 청통로 167-5,경상북도 영천시 청통면 우천리 337,1,35.9897775,128.8740763,경상북도 영천시청,사회복지과,054-330-6178,2025-11-17
55,청통면,계포리 경로당,경상북도 영천시 청통면 금송로 1173,경상북도 영천시 청통면 계포리 13,1,36.006154,128.812245,경상북도 영천시청,사회복지과,054-330-6178,2025-11-17
56,청통면,계지2리 경로당,경상북도 영천시 청통면 거조길 35,경상북도 영천시 청통면 계지리 743-6,1,36.0109937,128.8057153,경상북도 영천시청,사회복지과,054-330-6178,2025-11-17
57,청통면,우천1리 경로당,경상북도 영천시 청통면 청통로 236,경상북도 영천시 청통면 우천리 730,1,35.9880887,128.8672219,경상북도 영천시청,사회복지과,054-330-6178,2025-11-17
58,청통면,신학2리 경로당,경상북도 영천시 청통면 새학길 61(신학리 124-3),경상북도 영천시 청통면 신학리 124-2,1,35.9919514,128.8287361,경상북도 영천시청,사회복지과,054-330-6178,2025-11-17
59,신녕면,신녕분회경로당,경상북도 영천시 신녕면 치산효령로 15-9,경상북도 영천시 신녕면 화성리 939,1,36.0427851,128.78622,경상북도 영천시청,사회복지과,054-330-6178,2025-11-17
60,신녕면,신녕부녀경로당,경상북도 영천시 신녕면 본관시장길 34,경상북도 영천시 신녕면 화성리 903-9,2,36.0431775,128.7869996,경상북도 영천시청,사회복지과,054-330-6178,2025-11-17
61,신녕면,치산1리경로당,경상북도 영천시 신녕면 신암길 39,경상북도 영천시 신녕면 치산리 1416,1,36.045323,128.7118,경상북도 영천시청,사회복지과,054-330-6178,2025-11-17
62,신녕면,치산2리경로당,경상북도 영천시 신녕면 치산안길 52,경상북도 영천시 신녕면 치산리 1049,1,36.0568219,128.714169,경상북도 영천시청,사회복지과,054-330-6178,2025-11-17
63,신녕면,치산3리경로당,경상북도 영천시 신녕면 동지안길 4,경상북도 영천시 신녕면 치산리 744,1,36.0673848,128.7200637,경상북도 영천시청,사회복지과,054-330-6178,2025-11-17
64,신녕면,부산1리경로당,경상북도 영천시 신녕면 부산직동길 61,경상북도 영천시 신녕면 부산리 391-1,1,36.0552337,128.7452895,경상북도 영천시청,사회복지과,054-330-6178,2025-11-17
65,신녕면,부산2리경로당,경상북도 영천시 신녕면 도근리길 5,경상북도 영천시 신녕면 부산리 716,1,36.0683629,128.7370719,경상북도 영천시청,사회복지과,054-330-6178,2025-11-17
66,신녕면,화서리경로당,경상북도 영천시 신녕면 화정길 25-2,경상북도 영천시 신녕면 화서리 731-4,1,36.090812,128.7300025,경상북도 영천시청,사회복지과,054-330-6178,2025-11-17
67,신녕면,화남1리경로당,경상북도 영천시 신녕면 권응수길 49,경상북도 영천시 신녕면 화남리 584-3,1,36.0785669,128.7606281,경상북도 영천시청,사회복지과,054-330-6178,2025-11-17
68,신녕면,화남2리경로당,경상북도 영천시 신녕면 원낙길 98-4,경상북도 영천시 신녕면 화남리 1205,1,36.0716067,128.7533006,경상북도 영천시청,사회복지과,054-330-6178,2025-11-17
69,신녕면,화남3리경로당,경상북도 영천시 신녕면 화해길 16,경상북도 영천시 신녕면 화남리 955-1,1,36.0660427,128.7651776,경상북도 영천시청,사회복지과,054-330-6178,2025-11-17
70,신녕면,왕산1리경로당,경상북도 영천시 신녕면 왕산대길 24,경상북도 영천시 신녕면 왕산리 171,1,36.0447176,128.7810975,경상북도 영천시청,사회복지과,054-330-6178,2025-11-17
71,신녕면,왕산2리경로당,경상북도 영천시 신녕면 왕산중앙길 22,경상북도 영천시 신녕면 왕산리 107,2,36.0451135,128.783543,경상북도 영천시청,사회복지과,054-330-6178,2025-11-17
72,신녕면,매양1리경로당,경상북도 영천시 신녕면 찰방길 24,경상북도 영천시 신녕면 매양리 286-2,1,36.0417849,128.7815114,경상북도 영천시청,사회복지과,054-330-6178,2025-11-17
73,신녕면,매양2리경로당,경상북도 영천시 신녕면 매양안길 28-6,경상북도 영천시 신녕면 화성리 485-1,1,36.0468265,128.7904652,경상북도 영천시청,사회복지과,054-330-6178,2025-11-17
74,신녕면,화성1리경로당,경상북도 영천시 신녕면 큰골길 14,경상북도 영천시 신녕면 화성리 414-3,1,36.0443035,128.7901048,경상북도 영천시청,사회복지과,054-330-6178,2025-11-17
75,신녕면,화성2리경로당,경상북도 영천시 신녕면 화성중앙길 24-9,경상북도 영천시 신녕면 화성리 872,2,36.0431411,128.7881534,경상북도 영천시청,사회복지과,054-330-6178,2025-11-17
76,신녕면,화성3리경로당,경상북도 영천시 신녕면 화성중앙길 5,경상북도 영천시 신녕면 화성리 935-1,2,36.0437381,128.7860374,경상북도 영천시청,사회복지과,054-330-6178,2025-11-17
77,신녕면,화성4리경로당,경상북도 영천시 신녕면 치산효령로 14,경상북도 영천시 신녕면 화성리 1003-17,1,36.0449733,128.7883004,경상북도 영천시청,사회복지과,054-330-6178,2025-11-17
78,신녕면,화성5리경로당,경상북도 영천시 신녕면 장수로 1720-10,경상북도 영천시 신녕면 완전리 853-4,1,36.0393805,128.7882224,경상북도 영천시청,사회복지과,054-330-6178,2025-11-17
79,신녕면,완전1리경로당,경상북도 영천시 신녕면 장수로 1653-1,경상북도 영천시 신녕면 완전리 853-58,1,36.0379973,128.7885893,경상북도 영천시청,사회복지과,054-330-6178,2025-11-17
80,신녕면,완전2리경로당,경상북도 영천시 신녕면 장수로 1637,경상북도 영천시 신녕면 신덕리 749-22,1,36.0217005,128.8035022,경상북도 영천시청,사회복지과,054-330-6178,2025-11-17
81,신녕면,신덕1리경로당,경상북도 영천시 신녕면 신단본길 14,경상북도 영천시 신녕면 신덕리 223-1,1,36.0320662,128.8072536,경상북도 영천시청,사회복지과,054-330-6178,2025-11-17
82,신녕면,신덕2리경로당,경상북도 영천시 신녕면 신정길 27-4,경상북도 영천시 신녕면 연정리 345,1,36.0518592,128.8143081,경상북도 영천시청,사회복지과,054-330-6178,2025-11-17
83,신녕면,연정1리경로당,경상북도 영천시 신녕면 연정큰길 57,경상북도 영천시 신녕면 연정리 546-3,1,36.0447558,128.8071701,경상북도 영천시청,사회복지과,054-330-6178,2025-11-17
84,신녕면,연정2리경로당,경상북도 영천시 신녕면 신정길 177,경상북도 영천시 신녕면 가천리 183-1,2,36.054381,128.7914265,경상북도 영천시청,사회복지과,054-330-6178,2025-11-17
85,신녕면,가천리경로당,경상북도 영천시 신녕면 큰골길 101,경상북도 영천시 화산면 유성리 502-9,2,36.018292,128.8561058,경상북도 영천시청,사회복지과,054-330-6178,2025-11-17
86,화산면,화산면 분회 경로당,경상북도 영천시 화산면 장수로 921,경상북도 영천시 화산면 유성리 600-1,1,36.0190621,128.8555417,경상북도 영천시청,사회복지과,054-330-6178,2025-11-17
87,화산면,화산부녀 경로당,경상북도 영천시 화산면 장수로 926-7,경상북도 영천시 화산면 연계리 219-1,2,36.0240257,128.8477601,경상북도 영천시청,사회복지과,054-330-6178,2025-11-17
88,화산면,연계1리 경로당,경상북도 영천시 화산면 연유길 66-34,경상북도 영천시 화산면 연계리 270,1,36.0206938,128.8456997,경상북도 영천시청,사회복지과,054-330-6178,2025-11-17
89,화산면,연계2리 경로당,경상북도 영천시 화산면 율전길 32-4,경상북도 영천시 화산면 덕암리 548-84,1,36.0315758,128.8319239,경상북도 영천시청,사회복지과,054-330-6178,2025-11-17
90,화산면,덕암1리 경로당,경상북도 영천시 화산면 덕암길 12-5,경상북도 영천시 화산면 덕암리 239,1,36.0361358,128.833805,경상북도 영천시청,사회복지과,054-330-6178,2025-11-17
91,화산면,덕암2리 경로당,경상북도 영천시 화산면 덕암2길 6,경상북도 영천시 화산면 대안리 261-1,1,36.0275533,128.826862,경상북도 영천시청,사회복지과,054-330-6178,2025-11-17
92,화산면,대안1리 경로당,경상북도 영천시 화산면 대안1길 45,경상북도 영천시 화산면 대안리 1014-4,2,36.0298859,128.8160525,경상북도 영천시청,사회복지과,054-330-6178,2025-11-17
93,화산면,대안2리 경로당,경상북도 영천시 화산면 대안2길 81-25,경상북도 영천시 화산면 대안리 1206-7,2,36.0307608,128.8083666,경상북도 영천시청,사회복지과,054-330-6178,2025-11-17
94,화산면,대안3리 경로당,경상북도 영천시 화산면 신정길 12,경상북도 영천시 화산면 효정리 494-4,1,36.0499684,128.8331884,경상북도 영천시청,사회복지과,054-330-6178,2025-11-17
95,화산면,효정1리 경로당,경상북도 영천시 화산면 옛서당길 74,경상북도 영천시 화산면 효정리 446,1,36.0500714,128.831336,경상북도 영천시청,사회복지과,054-330-6178,2025-11-17
96,화산면,효정2리 경로당,경상북도 영천시 화산면 효자문안길 11-6,경상북도 영천시 화산면 당지리 109,1,36.0571732,128.8397675,경상북도 영천시청,사회복지과,054-330-6178,2025-11-17
97,화산면,당지1리 경로당,경상북도 영천시 화산면 섭재골길 24,경상북도 영천시 화산면 당지리 517-2,1,36.0728739,128.8368648,경상북도 영천시청,사회복지과,054-330-6178,2025-11-17
98,화산면,당지2리 경로당,경상북도 영천시 화산면 산성길 10,경상북도 영천시 화산면 화산리 1092,2,36.0574346,128.8553186,경상북도 영천시청,사회복지과,054-330-6178,2025-11-17
99,화산면,화산1리 경로당,경상북도 영천시 화산면 화촌길 65,경상북도 영천시 화산면 화산리 239-2,1,36.0462633,128.8684932,경상북도 영천시청,사회복지과,054-330-6178,2025-11-17
100,화산면,화산2리 경로당,경상북도 영천시 화산면 효지길 98-14,경상북도 영천시 화산면 가상리 680,2,36.0335398,128.8880825,경상북도 영천시청,사회복지과,054-330-6178,2025-11-17
101,화산면,가상리 경로당,경상북도 영천시 화산면 가래실로 390,경상북도 영천시 화산면 대기리 792,1,36.0114379,128.8949796,경상북도 영천시청,사회복지과,054-330-6178,2025-11-17
102,화산면,대기리 경로당,경상북도 영천시 화산면 대암길 112-1,경상북도 영천시 화산면 암기리 544-1,1,36.0148742,128.8871342,경상북도 영천시청,사회복지과,054-330-6178,2025-11-17
103,화산면,암기리 경로당,경상북도 영천시 화산면 가래실로 162,경상북도 영천시 화산면 삼부리 157-1,3,36.0021896,128.8833551,경상북도 영천시청,사회복지과,054-330-6178,2025-11-17
104,화산면,삼부리 경로당,경상북도 영천시 화산면 장수로 577-25,경상북도 영천시 화산면 석촌리 47-10,1,36.0099625,128.8721016,경상북도 영천시청,사회복지과,054-330-6178,2025-11-17
105,화산면,석촌리 경로당,경상북도 영천시 화산면 석촌2길 60,경상북도 영천시 화산면 당곡리 279,1,36.0214328,128.867414,경상북도 영천시청,사회복지과,054-330-6178,2025-11-17
106,화산면,당곡리 경로당,경상북도 영천시 화산면 당곡길 48-10,경상북도 영천시 화산면 유성리 700,1,36.0220786,128.8589559,경상북도 영천시청,사회복지과,054-330-6178,2025-11-17
107,화산면,유성1리 경로당,경상북도 영천시 화산면 유정안길 14-4,경상북도 영천시 화산면 유성리 1346-4,1,36.0186086,128.8497401,경상북도 영천시청,사회복지과,054-330-6178,2025-11-17
108,화산면,유성2리 경로당,경상북도 영천시 화산면 장수로 982,경상북도 영천시 화산면 유성리 578-5,1,36.0195768,128.8569285,경상북도 영천시청,사회복지과,054-330-6178,2025-11-17
109,화산면,유성3리 경로당,경상북도 영천시 화산면 유성길 13,경상북도 영천시 화산면 부계리 206-1,1,36.0083083,128.8615586,경상북도 영천시청,사회복지과,054-330-6178,2025-11-17
110,화산면,부계리 경로당,경상북도 영천시 화산면 부계길 115-6,경상북도 영천시 화산면 용평리 193-18,2,36.0173221,128.8482597,경상북도 영천시청,사회복지과,054-330-6178,2025-11-17
111,화산면,용평리 경로당,경상북도 영천시 화산면 용평2길 18,경상북도 영천시 화북면 자천리 787-1,2,36.1105139,128.9229645,경상북도 영천시청,사회복지과,054-330-6178,2025-11-17
112,화북면,화북면 분회 경로당,경상북도 영천시 화북면 자천9길 9,경상북도 영천시 화북면 자천리 1615,2,36.1075288,128.9171164,경상북도 영천시청,사회복지과,054-330-6178,2025-11-17
113,화북면,자천1리 경로당,경상북도 영천시 화북면 자천1길 20,경상북도 영천시 화북면 자천리 1547,2,36.1090386,128.9187389,경상북도 영천시청,사회복지과,054-330-6178,2025-11-17
114,화북면,자천2리 경로당,경상북도 영천시 화북면 자천5길 9-1,경상북도 영천시 화북면 자천리 713-1,2,36.1120018,128.9228553,경상북도 영천시청,사회복지과,054-330-6178,2025-11-17
115,화북면,자천3리 경로당,경상북도 영천시 화북면 화북길 39,경상북도 영천시 화북면 법화리 65-3,1,36.1623162,128.9482328,경상북도 영천시청,사회복지과,054-330-6178,2025-11-17
116,화북면,법화리 경로당,경상북도 영천시 화북면 법화길 270,경상북도 영천시 화북면 상송리 108,2,36.1523957,128.9171596,경상북도 영천시청,사회복지과,054-330-6178,2025-11-17
117,화북면,상송리 경로당,경상북도 영천시 화북면 상송안길 32,경상북도 영천시 화북면 정각리 807,1,36.1414863,128.9935029,경상북도 영천시청,사회복지과,054-330-6178,2025-11-17
118,화북면,정각1리 경로당,경상북도 영천시 화북면 정각1길 4,경상북도 영천시 화북면 공덕리 703,1,36.0912061,128.9456301,경상북도 영천시청,사회복지과,054-330-6178,2025-11-17
119,화북면,공덕리 경로당,경상북도 영천시 화북면 공덕길 33-3,경상북도 영천시 화북면 오산리 1133-1,1,36.0891656,128.912859,경상북도 영천시청,사회복지과,054-330-6178,2025-11-17
120,화북면,오동리 경로당,경상북도 영천시 화북면 오동안길 30,경상북도 영천시 화북면 오산리 855,1,36.0801827,128.92544,경상북도 영천시청,사회복지과,054-330-6178,2025-11-17
121,화북면,오산1리 경로당,경상북도 영천시 화북면 오공길 203,경상북도 영천시 화북면 옥계리 352,1,36.1185118,128.9353848,경상북도 영천시청,사회복지과,054-330-6178,2025-11-17
122,화북면,옥계리 경로당,경상북도 영천시 화북면 금계길 4,경상북도 영천시 화북면 오산리 212-1,1,36.088117,128.9372076,경상북도 영천시청,사회복지과,054-330-6178,2025-11-17
123,화북면,오산2리 경로당,경상북도 영천시 화북면 오공길 354,경상북도 영천시 화북면 횡계리 176,1,36.1142544,128.9492231,경상북도 영천시청,사회복지과,054-330-6178,2025-11-17
124,화북면,횡계리 경로당,경상북도 영천시 화북면 별빛로 135,경상북도 영천시 화북면 하송리 108,1,36.1530153,128.9275197,경상북도 영천시청,사회복지과,054-330-6178,2025-11-17
125,화북면,하송리 경로당,경상북도 영천시 화북면 내국길 32,경상북도 영천시 화북면 입석리 583-3,2,36.1315854,128.952878,경상북도 영천시청,사회복지과,054-330-6178,2025-11-17
126,화북면,입석리 경로당,경상북도 영천시 화북면 은하수길 65,경상북도 영천시 화북면 정각리 328,1,36.1298333,128.9938115,경상북도 영천시청,사회복지과,054-330-6178,2025-11-17
127,화북면,정각2리 경로당,경상북도 영천시 화북면 송림길 48-11,경상북도 영천시 화북면 죽전리 353,2,36.1462573,128.9111332,경상북도 영천시청,사회복지과,054-330-6178,2025-11-17
128,화북면,죽전1리 경로당,경상북도 영천시 화북면 직당숲길 23,경상북도 영천시 화북면 죽전리 1039,1,36.1502384,128.8979719,경상북도 영천시청,사회복지과,054-330-6178,2025-11-17
129,화북면,죽전2리 경로당,경상북도 영천시 화북면 탑들소일길 198-5,경상북도 영천시 화북면 횡계리 549-2,1,36.1198329,128.9401137,경상북도 영천시청,사회복지과,054-330-6178,2025-11-17
130,화북면,아촌 은하수 경로당,경상북도 영천시 화북면 천문로 2468-66,경상북도 영천시 화남면 금호리 151-6,1,36.0699779,128.9067791,경상북도 영천시청,사회복지과,054-330-6178,2025-11-17
131,화남면,금호1리 경로당,경상북도 영천시 화남면 금호1길 58,경상북도 영천시 화남면 금호리 580,1,36.0775533,128.9120853,경상북도 영천시청,사회복지과,054-330-6178,2025-11-17
132,화남면,금호2리 경로당,경상북도 영천시 화남면 내지길 47,경상북도 영천시 화남면 죽곡리 657-1,1,36.0475821,128.9486218,경상북도 영천시청,사회복지과,054-330-6178,2025-11-17
133,화남면,죽곡1리 경로당,경상북도 영천시 화남면 신선로 301,경상북도 영천시 화남면 죽곡리 209,1,36.0638979,128.9586803,경상북도 영천시청,사회복지과,054-330-6178,2025-11-17
134,화남면,죽곡2리 경로당,경상북도 영천시 화남면 죽곡2길 137,경상북도 영천시 화남면 신호리 658,1,36.033969,128.9336229,경상북도 영천시청,사회복지과,054-330-6178,2025-11-17
135,화남면,신호1리 경로당,경상북도 영천시 화남면 신흥길 7-1,경상북도 영천시 화남면 신호리 179,1,36.0477157,128.943566,경상북도 영천시청,사회복지과,054-330-6178,2025-11-17
136,화남면,신호2리 경로당,경상북도 영천시 화남면 대내실길 22,경상북도 영천시 화남면 사천리 517-4,2,36.0379277,128.9186335,경상북도 영천시청,사회복지과,054-330-6178,2025-11-17
137,화남면,사천1리 경로당,경상북도 영천시 화남면 사천2길 36,경상북도 영천시 화남면 사천리 660-3,1,36.0379071,128.9186443,경상북도 영천시청,사회복지과,054-330-6178,2025-11-17
138,화남면,중동 경로당,경상북도 영천시 화남면 사천1길 40-10,경상북도 영천시 화남면 대천리 535,1,36.0391617,128.9102219,경상북도 영천시청,사회복지과,054-330-6178,2025-11-17
139,화남면,노방마을경로당,경상북도 영천시 화남면 노방길 205,경상북도 영천시 화남면 대천리 425-3,2,36.0406891,128.9083652,경상북도 영천시청,사회복지과,054-330-6178,2025-11-17
140,화남면,대천1리 경로당,경상북도 영천시 화남면 대천1길 37,경상북도 영천시 화남면 선천리 703,2,36.0595605,128.8954598,경상북도 영천시청,사회복지과,054-330-6178,2025-11-17
141,화남면,대천2리 경로당,경상북도 영천시 화남면 대천2길 7,경상북도 영천시 화남면 선천리 1106-2,1,36.0508971,128.8950298,경상북도 영천시청,사회복지과,054-330-6178,2025-11-17
142,화남면,선천1리 경로당,경상북도 영천시 화남면 학지길 47,경상북도 영천시 화남면 선천리 1446-29,1,36.0510638,128.8899519,경상북도 영천시청,사회복지과,054-330-6178,2025-11-17
143,화남면,선천2리 경로당,경상북도 영천시 화남면 선관길 11-14,경상북도 영천시 화남면 삼창리 350,1,36.0648438,128.8909707,경상북도 영천시청,사회복지과,054-330-6178,2025-11-17
144,화남면,선천3리 경로당,경상북도 영천시 화남면 유천길 39-2,경상북도 영천시 화남면 삼창리 245,1,36.0603683,128.8910701,경상북도 영천시청,사회복지과,054-330-6178,2025-11-17
145,화남면,현고 경로당,경상북도 영천시 화남면 현고길 43,경상북도 영천시 화남면 삼창리 268-3,3,36.0608764,128.8910969,경상북도 영천시청,사회복지과,054-330-6178,2025-11-17
146,화남면,삼창2리 경로당,경상북도 영천시 화남면 천문로 1597-9,경상북도 영천시 화남면 삼창리 531-2,1,36.0687579,128.8923192,경상북도 영천시청,사회복지과,054-330-6178,2025-11-17
147,화남면,화남면 분회 경로당,경상북도 영천시 화남면 천문로 1597-12,경상북도 영천시 화남면 귀호리 681-2,1,36.0635318,128.869834,경상북도 영천시청,사회복지과,054-330-6178,2025-11-17
148,화남면,삼창3리 경로당,경상북도 영천시 화남면 한천길 52-9,경상북도 영천시 화남면 귀호리 141,1,36.0484939,128.8786338,경상북도 영천시청,사회복지과,054-330-6178,2025-11-17
149,화남면,귀호1리 경로당,경상북도 영천시 화남면 귀호1길 131,경상북도 영천시 화남면 안천리 565-7,1,36.0838103,128.8955438,경상북도 영천시청,사회복지과,054-330-6178,2025-11-17
150,화남면,귀호2리 경로당,경상북도 영천시 화남면 귀호2길 71-3,경상북도 영천시 화남면 안천리 863-1,1,36.0826472,128.8948788,경상북도 영천시청,사회복지과,054-330-6178,2025-11-17
151,화남면,안천1 경로당,경상북도 영천시 화남면 구전로 166,경상북도 영천시 화남면 안천리 1623,1,36.0898691,128.866915,경상북도 영천시청,사회복지과,054-330-6178,2025-11-17
152,화남면,안천2리 경로당,경상북도 영천시 화남면 능계2길 14,경상북도 영천시 화남면 온천리 112,1,36.0888416,128.8605445,경상북도 영천시청,사회복지과,054-330-6178,2025-11-17
153,화남면,안천3 경로당,경상북도 영천시 화남면 구전로 460,경상북도 영천시 화남면 구전리 121-3,2,36.1023182,128.8654292,경상북도 영천시청,사회복지과,054-330-6178,2025-11-17
154,화남면,온천 경로당,경상북도 영천시 화남면 온천길 46,경상북도 영천시 화남면 월곡리 642-2,1,36.1019834,128.8813235,경상북도 영천시청,사회복지과,054-330-6178,2025-11-17
155,화남면,구전 경로당,경상북도 영천시 화남면 용구길 42,경상북도 영천시 화남면 월곡리 211-1,1,36.1008062,128.8937442,경상북도 영천시청,사회복지과,054-330-6178,2025-11-17
156,화남면,용계리 경로당,경상북도 영천시 화남면 용구길 498,경상북도 영천시 자양면 성곡리 557-5,1,36.0787814,129.017906,경상북도 영천시청,사회복지과,054-330-6178,2025-11-17
157,화남면,월곡1리 경로당,경상북도 영천시 화남면 월령길 178,경상북도 영천시 자양면 용화리 296,1,36.0878852,129.0011868,경상북도 영천시청,사회복지과,054-330-6178,2025-11-17
158,화남면,월곡2리 경로당,경상북도 영천시 화남면 월곡길 244,경상북도 영천시 자양면 성곡리 산96-8,2,36.0775913,129.0189121,경상북도 영천시청,사회복지과,054-330-6178,2025-11-17
159,자양면,분회경로당,경상북도 영천시 자양면 포은로 1625-6,경상북도 영천시 자양면 신방리 961-2,1,36.0656299,129.0661538,경상북도 영천시청,사회복지과,054-330-6178,2025-11-17
160,자양면,용화리 경로당,경상북도 영천시 자양면 용화길 122,경상북도 영천시 자양면 신방리 763-8,1,36.0680249,129.0756995,경상북도 영천시청,사회복지과,054-330-6178,2025-11-17
161,자양면,성곡리 경로당,경상북도 영천시 자양면 포은로 1640,경상북도 영천시 자양면 신방리 526-1,1,36.0688613,129.0815001,경상북도 영천시청,사회복지과,054-330-6178,2025-11-17
162,자양면,신방1리 신천경로당,경상북도 영천시 자양면 신방로565,경상북도 영천시 자양면 신방리 293-1,1,36.0742688,129.0954912,경상북도 영천시청,사회복지과,054-330-6178,2025-11-17
163,자양면,신방1리 골안경로당,경상북도 영천시 자양면 신방로 660,경상북도 영천시 자양면 용산리 289,1,36.0902024,129.0358619,경상북도 영천시청,사회복지과,054-330-6178,2025-11-17
164,자양면,신방2리 부전경로당,경상북도 영천시 자양면 상신길 69,경상북도 영천시 자양면 삼귀리 242-2,1,36.0818565,129.0743813,경상북도 영천시청,사회복지과,054-330-6178,2025-11-17
165,자양면,신방2리 상신경로당,경상북도 영천시 자양면 상신길 215-5,경상북도 영천시 자양면 충효리 610,1,36.1082079,129.0670443,경상북도 영천시청,사회복지과,054-330-6178,2025-11-17
166,자양면,용산리 경로당,경상북도 영천시 자양면 원각길 55,경상북도 영천시 자양면 충효리 148,1,36.1196822,129.0590606,경상북도 영천시청,사회복지과,054-330-6178,2025-11-17
167,자양면,삼귀리 경로당,경상북도 영천시 자양면 차당실2길 20,경상북도 영천시 자양면 도일리 348-2,1,36.1102563,129.0828281,경상북도 영천시청,사회복지과,054-330-6178,2025-11-17
168,자양면,충효2리 경로당,경상북도 영천시 자양면 별빛로 1538-2,경상북도 영천시 자양면 보현리 688,1,36.1328108,129.0460228,경상북도 영천시청,사회복지과,054-330-6178,2025-11-17
169,자양면,충효3리 경로당,경상북도 영천시 자양면 내검단길 18,경상북도 영천시 자양면 보현리 1162,1,36.1353255,129.0340548,경상북도 영천시청,사회복지과,054-330-6178,2025-11-17
170,자양면,도일리 경로당,경상북도 영천시 자양면 도일길 31,경상북도 영천시 자양면 보현리 793-3,2,36.134531,129.0406705,경상북도 영천시청,사회복지과,054-330-6178,2025-11-17
171,자양면,보현1리 경로당,경상북도 영천시 자양면 별빛로 1175,경상북도 영천시 자양면 보현리 1290,1,36.1379714,129.0317762,경상북도 영천시청,사회복지과,054-330-6178,2025-11-17
172,자양면,보현2리 상기경로당,경상북도 영천시 자양면 상기길 37-8,경상북도 영천시 자양면 보현리 1743,1,36.1446868,129.0309197,경상북도 영천시청,사회복지과,054-330-6178,2025-11-17
173,자양면,보현2리 새마을경로당,경상북도 영천시 자양면 별빛로 1124,경상북도 영천시 자양면 보현리 2266,1,36.1383535,129.0160772,경상북도 영천시청,사회복지과,054-330-6178,2025-11-17
174,자양면,보현3리 송정경로당,경상북도 영천시 자양면 별빛로 1016-14,경상북도 영천시 자양면 보현리 2537,1,36.1379833,129.0057917,경상북도 영천시청,사회복지과,054-330-6178,2025-11-17
175,자양면,보현3리 절골경로당,경상북도 영천시 자양면 사곡길 75,경상북도 영천시 임고면 양항리 276-8,1,36.0097908,128.9738242,경상북도 영천시청,사회복지과,054-330-6178,2025-11-17
176,자양면,보현4리 탑전경로당,경상북도 영천시 자양면 탑전음지길 31,경상북도 영천시 임고면 양항리 559-6,2,36.0199876,128.9746264,경상북도 영천시청,사회복지과,054-330-6178,2025-11-17
177,자양면,보현4리 신기경로당,경상북도 영천시 자양면 신기마을길 18-2,경상북도 영천시 임고면 선원리 909-122,1,36.0463803,128.9782766,경상북도 영천시청,사회복지과,054-330-6178,2025-11-17
178,임고면,양항1리 경로당,경상북도 영천시 임고면 양항3길 8,경상북도 영천시 임고면 선원리 909-106,1,36.0290981,128.9743414,경상북도 영천시청,사회복지과,054-330-6178,2025-11-17
179,임고면,양항2리 경로당,경상북도 영천시 임고면 포은로 488,경상북도 영천시 임고면 덕연리 989-150,1,36.0522963,128.9885972,경상북도 영천시청,사회복지과,054-330-6178,2025-11-17
180,임고면,선원1리 경로당,경상북도 영천시 임고면 신선로 688,경상북도 영천시 임고면 삼매리 796,1,36.0599978,128.9962891,경상북도 영천시청,사회복지과,054-330-6178,2025-11-17
181,임고면,선원2리 경로당,경상북도 영천시 임고면 환구길 10,경상북도 영천시 임고면 삼매리 1259-21,1,36.053986,128.9995908,경상북도 영천시청,사회복지과,054-330-6178,2025-11-17
182,임고면,덕연리 경로당,경상북도 영천시 임고면 윗덕수길 93,경상북도 영천시 임고면 삼매리 1083-1,1,36.0738104,128.9751546,경상북도 영천시청,사회복지과,054-330-6178,2025-11-17
183,임고면,삼매1리 경로당,경상북도 영천시 임고면 삼매반곡길 3,경상북도 영천시 임고면 삼매리 234-10,1,36.0558488,129.0075736,경상북도 영천시청,사회복지과,054-330-6178,2025-11-17
184,임고면,삼매1리(석동) 경로당,경상북도 영천시 임고면 삼매매곡길 26,경상북도 영천시 임고면 평천리 611,2,36.0399077,128.9823235,경상북도 영천시청,사회복지과,054-330-6178,2025-11-17
185,임고면,삼매2리 경로당,경상북도 영천시 임고면 삼매매곡길 368,경상북도 영천시 임고면 평천리 287,1,36.0315233,128.9846138,경상북도 영천시청,사회복지과,054-330-6178,2025-11-17
186,임고면,삼매3리 경로당,경상북도 영천시 임고면 포은로 1051-24,경상북도 영천시 임고면 평천리 366-21,1,36.0401865,128.9854641,경상북도 영천시청,사회복지과,054-330-6178,2025-11-17
187,임고면,평천1리 경로당,경상북도 영천시 임고면 평천다산길 30-6,경상북도 영천시 임고면 평천리 614-2,1,36.04020455,128.98212,경상북도 영천시청,사회복지과,054-330-6178,2025-11-17
188,임고면,평천2리 경로당,경상북도 영천시 임고면 평천신촌길 77,경상북도 영천시 임고면 양평리 173,1,36.0218463,128.9816688,경상북도 영천시청,사회복지과,054-330-6178,2025-11-17
189,임고면,평천리 3리 경로당,경상북도 영천시 임고면 평천다산길 53-34,경상북도 영천시 임고면 황강리 290,1,36.0257138,128.9933587,경상북도 영천시청,사회복지과,054-330-6178,2025-11-17
190,임고면,양평1리 경로당,경상북도 영천시 임고면 돌빼기길 25,경상북도 영천시 임고면 효리 863-2,1,36.0325788,129.0076011,경상북도 영천시청,사회복지과,054-330-6178,2025-11-17
191,임고면,양평2리 경로당,경상북도 영천시 임고면 수평길 26,경상북도 영천시 임고면 효리 235,1,36.037925,129.0183942,경상북도 영천시청,사회복지과,054-330-6178,2025-11-17
192,임고면,황강리 경로당,경상북도 영천시 임고면 황강길 3,경상북도 영천시 임고면 금대리 686,1,36.0449585,129.0273607,경상북도 영천시청,사회복지과,054-330-6178,2025-11-17
193,임고면,효1리 경로당,경상북도 영천시 임고면 운주로 357,경상북도 영천시 임고면 금대리 428-9,1,36.0512286,129.0311379,경상북도 영천시청,사회복지과,054-330-6178,2025-11-17
194,임고면,효2리 경로당,경상북도 영천시 임고면 운주로 473,경상북도 영천시 임고면 금대리 126-3,2,36.0495128,129.0440262,경상북도 영천시청,사회복지과,054-330-6178,2025-11-17
195,임고면,금대리(새터) 경로당,경상북도 영천시 임고면 금대1길 7-1,경상북도 영천시 임고면 사리 968-9,1,36.046037,129.0537819,경상북도 영천시청,사회복지과,054-330-6178,2025-11-17
196,임고면,금대리(본터) 경로당,경상북도 영천시 임고면 운주로 675,경상북도 영천시 임고면 사리 683,1,36.0342914,129.0700055,경상북도 영천시청,사회복지과,054-330-6178,2025-11-17
197,임고면,금대리(찜터) 경로당,경상북도 영천시 임고면 금대2길 5,경상북도 영천시 임고면 사리 415,1,36.0455705,129.0812657,경상북도 영천시청,사회복지과,054-330-6178,2025-11-17
198,임고면,사1리(담골) 경로당,경상북도 영천시 임고면 운주로 916-4,경상북도 영천시 임고면 수성리 1245-3,1,36.0580136,129.1010275,경상북도 영천시청,사회복지과,054-330-6178,2025-11-17
199,임고면,사1리(착골) 경로당,경상북도 영천시 임고면 사덕로 223,경상북도 영천시 임고면 수성리 916-5,1,36.0569364,129.1116967,경상북도 영천시청,사회복지과,054-330-6178,2025-11-17
200,임고면,사2리 경로당,경상북도 영천시 임고면 운주로 1186,경상북도 영천시 임고면 수성리 30,1,36.0536463,129.1314972,경상북도 영천시청,사회복지과,054-330-6178,2025-11-17
201,임고면,수성1리(구만) 경로당,경상북도 영천시 임고면 구만길 63,경상북도 영천시 임고면 우항리 172-2,1,36.0111098,128.9890888,경상북도 영천시청,사회복지과,054-330-6178,2025-11-17
202,임고면,수성2리(중리) 경로당,경상북도 영천시 임고면 운주로 1546-4,경상북도 영천시 임고면 우항리 327-1,1,36.0079479,128.9894376,경상북도 영천시청,사회복지과,054-330-6178,2025-11-17
203,임고면,수성2리(원기) 경로당,경상북도 영천시 임고면 운주로 1741,경상북도 영천시 임고면 우항리 845-4,1,36.0148877,128.9871459,경상북도 영천시청,사회복지과,054-330-6178,2025-11-17
204,임고면,우항 경로당,경상북도 영천시 임고면 효자로 348,경상북도 영천시 임고면 매호리 728,1,35.9977749,128.9669431,경상북도 영천시청,사회복지과,054-330-6178,2025-11-17
205,임고면,우항리(연하) 경로당,경상북도 영천시 임고면 효자로 314,경상북도 영천시 임고면 매호리 117-5,1,36.0084836,128.9671947,경상북도 영천시청,사회복지과,054-330-6178,2025-11-17
206,임고면,고천리 경로당,경상북도 영천시 임고면 고천길 13,경상북도 영천시 고경면 단포리 99,2,35.9804736,128.9762316,경상북도 영천시청,사회복지과,054-330-6178,2025-11-17
207,임고면,매호1리 경로당,경상북도 영천시 임고면 매호운천길 10,경상북도 영천시 고경면 창하리 713-18,1,35.9835155,128.986032,경상북도 영천시청,사회복지과,054-330-6178,2025-11-17
208,임고면,매호2리 경로당,경상북도 영천시 임고면 맘실길 66,경상북도 영천시 고경면 창상리 225-1,1,35.9946204,128.9856644,경상북도 영천시청,사회복지과,054-330-6178,2025-11-17
209,임고면,임고면 분회 경로당,경상북도 영천시 임고면 포은로 488,경상북도 영천시 고경면 오류리 374-4,1,35.9597594,129.0266906,경상북도 영천시청,사회복지과,054-330-6178,2025-11-17
210,고경면,단포 경로당,경상북도 영천시 고경면 호국로 361-11,경상북도 영천시 고경면 용전리 744,1,35.988522,129.0168129,경상북도 영천시청,사회복지과,054-330-6178,2025-11-17
211,고경면,창하 경로당,경상북도 영천시 고경면 호국로 458,경상북도 영천시 고경면 용전리 1277,1,35.9848795,129.0272333,경상북도 영천시청,사회복지과,054-330-6178,2025-11-17
212,고경면,창상 경로당,경상북도 영천시 고경면 효자로 156,경상북도 영천시 고경면 도암리 497-1,1,35.9937191,129.0065067,경상북도 영천시청,사회복지과,054-330-6178,2025-11-17
213,고경면,오류 경로당,경상북도 영천시 고경면 거곡로 591,경상북도 영천시 고경면 도암리 130-1,2,36.0014218,129.0175641,경상북도 영천시청,사회복지과,054-330-6178,2025-11-17
214,고경면,용전1리 경로당,경상북도 영천시 고경면 추곡길 151,경상북도 영천시 고경면 상리리 252,1,36.0099821,129.034828,경상북도 영천시청,사회복지과,054-330-6178,2025-11-17
215,고경면,용전2리 경로당,경상북도 영천시 고경면 추곡길 255,경상북도 영천시 고경면 삼귀리 51,2,35.9648674,129.0672354,경상북도 영천시청,사회복지과,054-330-6178,2025-11-17
216,고경면,도암1리 경로당,경상북도 영천시 고경면 호국로 674-11,경상북도 영천시 고경면 동도리 357-3,1,35.9995262,129.0618816,경상북도 영천시청,사회복지과,054-330-6178,2025-11-17
217,고경면,도암2리 경로당,경상북도 영천시 고경면 호국로 803,경상북도 영천시 고경면 상덕리 410-2,1,36.0053311,129.0701121,경상북도 영천시청,사회복지과,054-330-6178,2025-11-17
218,고경면,상리 경로당,경상북도 영천시 고경면 배골길 93-4,경상북도 영천시 고경면 석계리 162,1,36.0024399,129.0940819,경상북도 영천시청,사회복지과,054-330-6178,2025-11-17
219,고경면,삼귀 경로당,경상북도 영천시 고경면 차당실2길 20,경상북도 영천시 고경면 덕암리 230,1,35.987455,129.0918634,경상북도 영천시청,사회복지과,054-330-6178,2025-11-17
220,고경면,동도 경로당,경상북도 영천시 고경면 동도길 53,경상북도 영천시 고경면 전사리 301,1,35.9952659,129.0448491,경상북도 영천시청,사회복지과,054-330-6178,2025-11-17
221,고경면,상덕 경로당,경상북도 영천시 고경면 양달길 30,경상북도 영천시 고경면 용전리 377,1,35.9838541,129.0045339,경상북도 영천시청,사회복지과,054-330-6178,2025-11-17
222,고경면,석계 경로당,경상북도 영천시 고경면 생계길 6-9,경상북도 영천시 고경면 칠전리 84-1,1,35.9497206,129.0935729,경상북도 영천시청,사회복지과,054-330-6178,2025-11-17
223,고경면,덕암리 경로당,경상북도 영천시 고경면 심청길 20,경상북도 영천시 고경면 대성리 149,1,35.9604991,128.998204,경상북도 영천시청,사회복지과,054-330-6178,2025-11-17
224,고경면,전사2리 경로당,경상북도 영천시 고경면 백소길 66,경상북도 영천시 고경면 차당리 293-2,1,35.9832604,129.0634899,경상북도 영천시청,사회복지과,054-330-6178,2025-11-17
225,고경면,고도1리 경로당,경상북도 영천시 고경면 고도길 74,경상북도 영천시 고경면 고도리 225,1,35.9735617,129.0249844,경상북도 영천시청,사회복지과,054-330-6178,2025-11-17
226,고경면,칠전 경로당,경상북도 영천시 고경면 칠전길 114,경상북도 영천시 고경면 오룡리 877-1,1,36.0152075,129.1308721,경상북도 영천시청,사회복지과,054-330-6178,2025-11-17
227,고경면,대성리 경로당,경상북도 영천시 고경면 대죽길 6,경상북도 영천시 고경면 청정리 354-5,1,35.9862219,129.0992873,경상북도 영천시청,사회복지과,054-330-6178,2025-11-17
228,고경면,차당 경로당,경상북도 영천시 고경면 차당실로 299-21,경상북도 영천시 고경면 전사리 11,2,35.9985257,129.0542319,경상북도 영천시청,사회복지과,054-330-6178,2025-11-17
229,고경면,고도2리 경로당,경상북도 영천시 고경면 고도길 286-4,경상북도 영천시 고경면 해선리 291-2,1,36.0012401,129.0443678,경상북도 영천시청,사회복지과,054-330-6178,2025-11-17
230,고경면,오룡2리 경로당,경상북도 영천시 고경면 동사길 2,경상북도 영천시 고경면 해선리 310-1,2,36.0016774,129.0462025,경상북도 영천시청,사회복지과,054-330-6178,2025-11-17
231,고경면,청정1리 경로당,경상북도 영천시 고경면 청정길 21-15,경상북도 영천시 고경면 삼산리 275,1,35.9980876,129.0965672,경상북도 영천시청,사회복지과,054-330-6178,2025-11-17
232,고경면,전사1리 경로당,경상북도 영천시 고경면 앞새일길 15-26,경상북도 영천시 고경면 논실리 131,1,35.9389624,129.1209032,경상북도 영천시청,사회복지과,054-330-6178,2025-11-17
233,고경면,해선리 경로당,경상북도 영천시 고경면 월천길 26-72,경상북도 영천시 고경면 고도리 453,2,35.9792105,129.0015422,경상북도 영천시청,사회복지과,054-330-6178,2025-11-17
234,고경면,고경면 분회 경로당,경상북도 영천시 고경면 호국로 1065-23,경상북도 영천시 고경면 대의리 511,3,35.9702935,128.9831001,경상북도 영천시청,사회복지과,054-330-6178,2025-11-17
235,고경면,삼산 경로당,경상북도 영천시 고경면 모시밭길 66-1,경상북도 영천시 고경면 덕정리 247,1,35.9367265,129.1074919,경상북도 영천시청,사회복지과,054-330-6178,2025-11-17
236,고경면,논실 경로당,경상북도 영천시 고경면 논실길 172,경상북도 영천시 고경면 청정리 569-7,2,35.9829045,129.1051572,경상북도 영천시청,사회복지과,054-330-6178,2025-11-17
237,고경면,민도 경로당,경상북도 영천시 고경면 민도길 120,경상북도 영천시 고경면 해선리 569,1,36.0002755,129.0387839,경상북도 영천시청,사회복지과,054-330-6178,2025-11-17
238,고경면,대의리 경로당,경상북도 영천시 고경면 거곡로 137-2,경상북도 영천시 고경면 부리 173,1,35.9729617,129.0463601,경상북도 영천시청,사회복지과,054-330-6178,2025-11-17
239,고경면,덕정 경로당,경상북도 영천시 고경면 용담로 1522-17,경상북도 영천시 고경면 오룡리 1229-2,1,36.0231334,129.1247158,경상북도 영천시청,사회복지과,054-330-6178,2025-11-17
240,고경면,청정2리 경로당,경상북도 영천시 고경면 오릿길 8,경상북도 영천시 고경면 가수리 195-5,2,36.0024585,129.0802043,경상북도 영천시청,사회복지과,054-330-6178,2025-11-17
241,고경면,장척 경로당,경상북도 영천시 고경면 장재길 14,경상북도 영천시 고경면 단포리 99,2,35.9804736,128.9762316,경상북도 영천시청,사회복지과,054-330-6178,2025-11-17
242,고경면,부리 경로당,경상북도 영천시 고경면 추곡길 491,경상북도 영천시 고경면 삼포리 740-4,1,36.014676,129.1037591,경상북도 영천시청,사회복지과,054-330-6178,2025-11-17
243,고경면,오룡1리 경로당,경상북도 영천시 고경면 미룡길 23-5,경상북도 영천시 고경면 초일리 97,1,35.975097,129.0766958,경상북도 영천시청,사회복지과,054-330-6178,2025-11-17
244,고경면,가수1리 경로당,경상북도 영천시 고경면 가징계길 14-9,경상북도 영천시 고경면 창하리 1044-5,2,35.9877688,128.9812764,경상북도 영천시청,사회복지과,054-330-6178,2025-11-17
245,고경면,단포(여) 경로당,경상북도 영천시 고경면 호국로 361-11,경상북도 영천시 고경면 석계리 371-3,1,35.9970781,129.0873633,경상북도 영천시청,사회복지과,054-330-6178,2025-11-17
246,고경면,삼포 경로당,경상북도 영천시 고경면 상계로 279,경상북도 영천시 고경면 가수리 65-4,1,36.0025274,129.0874337,경상북도 영천시청,사회복지과,054-330-6178,2025-11-17
247,고경면,초일리 경로당,경상북도 영천시 고경면 초일길 342,경상북도 영천시 고경면 단포리 407-106,1,35.9821331,128.9736529,경상북도 영천시청,사회복지과,054-330-6178,2025-11-17
248,고경면,창굼 경로당,경상북도 영천시 고경면 효자로 61,경상북도 영천시 고경면 학리 188,1,36.0212599,129.0493159,경상북도 영천시청,사회복지과,054-330-6178,2025-11-17
249,고경면,동부 경로당,경상북도 영천시 고경면 호국로 1457-60,경상북도 영천시 고경면 파계리 239,1,35.961111,129.110821,경상북도 영천시청,사회복지과,054-330-6178,2025-11-17
250,고경면,가수2리 경로당,경상북도 영천시 고경면 가수길 94,경상북도 영천시 고경면 차당리 629-1,1,35.9668436,129.0665602,경상북도 영천시청,사회복지과,054-330-6178,2025-11-17
251,고경면,해피포유아파트 경로당,경상북도 영천시 고경면 방천길 30,경상북도 영천시 북안면 상리 350-1,1,35.8511993,128.9917022,경상북도 영천시청,사회복지과,054-330-6178,2025-11-17
252,고경면,학리 경로당,경상북도 영천시 고경면 배골길 311,경상북도 영천시 북안면 명주리 375,2,35.8737699,128.9969743,경상북도 영천시청,사회복지과,054-330-6178,2025-11-17
253,고경면,파계리경로당,경상북도 영천시 고경면 용담로 1809,경상북도 영천시 북안면 신대리 354,2,35.8834711,129.0033943,경상북도 영천시청,사회복지과,054-330-6178,2025-11-17
254,고경면,상차당,경상북도 영천시 고경면 차당실1길 31,경상북도 영천시 북안면 임포리 267-1,1,35.918818,129.0094825,경상북도 영천시청,사회복지과,054-330-6178,2025-11-17
255,북안면,상리 경로당,경상북도 영천시 북안면 운북로 1194,경상북도 영천시 북안면 자포리 374-1,1,35.9291445,129.0217757,경상북도 영천시청,사회복지과,054-330-6178,2025-11-17
256,북안면,원곡 경로당,경상북도 영천시 북안면 새불길 12,경상북도 영천시 북안면 송포리 775-5,1,35.9369507,128.9835504,경상북도 영천시청,사회복지과,054-330-6178,2025-11-17
257,북안면,신대리 경로당,경상북도 영천시 북안면 두리봉길 9-4,경상북도 영천시 북안면 유상리 805,1,35.9178086,128.9753469,경상북도 영천시청,사회복지과,054-330-6178,2025-11-17
258,북안면,북안면 분회 경로당,경상북도 영천시 북안면 운북로 2028-3,경상북도 영천시 북안면 당리 210-2,1,35.8607149,128.9963026,경상북도 영천시청,사회복지과,054-330-6178,2025-11-17
259,북안면,자포리 경로당,경상북도 영천시 북안면 송학길 10-2,경상북도 영천시 북안면 용계리 216,1,35.8740948,129.0043912,경상북도 영천시청,사회복지과,054-330-6178,2025-11-17
260,북안면,송포1리 경로당,경상북도 영천시 북안면 엿들길 10-8,경상북도 영천시 북안면 도유리 282,1,35.8751597,128.9837462,경상북도 영천시청,사회복지과,054-330-6178,2025-11-17
261,북안면,유상1리 경로당,경상북도 영천시 북안면 유상길 249-21,경상북도 영천시 북안면 북리 324,1,35.8624999,128.9861994,경상북도 영천시청,사회복지과,054-330-6178,2025-11-17
262,북안면,당1리 경로당,경상북도 영천시 북안면 당리길 56,경상북도 영천시 북안면 고지리 351-7,1,35.9035162,129.0123512,경상북도 영천시청,사회복지과,054-330-6178,2025-11-17
263,북안면,용계 (원당골) 경로당,경상북도 영천시 북안면 원당골길 80-1,경상북도 영천시 북안면 반정리 583-1,1,35.9339501,128.9937554,경상북도 영천시청,사회복지과,054-330-6178,2025-11-17
264,북안면,도유리 경로당,경상북도 영천시 북안면 도유길 116,경상북도 영천시 북안면 도천리 520-1,1,35.895673,129.0186625,경상북도 영천시청,사회복지과,054-330-6178,2025-11-17
265,북안면,북리 경로당,경상북도 영천시 북안면 금창로 1697,경상북도 영천시 북안면 유하리 88-1,1,35.9333138,128.9761746,경상북도 영천시청,사회복지과,054-330-6178,2025-11-17
266,북안면,고지1리 경로당,경상북도 영천시 북안면 운북로 1858,경상북도 영천시 북안면 임포리 228-1,2,35.91877,129.0121832,경상북도 영천시청,사회복지과,054-330-6178,2025-11-17
267,북안면,반정1리 경로당,경상북도 영천시 북안면 반정1길 34,경상북도 영천시 북안면 송포리 248-9,1,35.9414229,128.983761,경상북도 영천시청,사회복지과,054-330-6178,2025-11-17
268,북안면,도천1리 경로당,경상북도 영천시 북안면 연당길 1,경상북도 영천시 북안면 고지리 106-1,1,35.9090479,129.0216524,경상북도 영천시청,사회복지과,054-330-6178,2025-11-17
269,북안면,유하리 경로당,경상북도 영천시 북안면 유하큰길 76,경상북도 영천시 북안면 신리리 320-1,1,35.887893,129.0114257,경상북도 영천시청,사회복지과,054-330-6178,2025-11-17
270,북안면,임포2리 경로당,경상북도 영천시 북안면 임포역길 72,경상북도 영천시 북안면 유상리 142,1,35.908233,128.9774927,경상북도 영천시청,사회복지과,054-330-6178,2025-11-17
271,북안면,송포2리 경로당,경상북도 영천시 북안면 송포길 68,경상북도 영천시 북안면 반정리 1243-6,1,35.9282139,128.9908678,경상북도 영천시청,사회복지과,054-330-6178,2025-11-17
272,북안면,고지2리 경로당,경상북도 영천시 북안면 방산길 21,경상북도 영천시 북안면 내포리 51,1,35.9300478,129.0097106,경상북도 영천시청,사회복지과,054-330-6178,2025-11-17
273,북안면,신리리 경로당,경상북도 영천시 북안면 운북로 1671,경상북도 영천시 북안면 서당리 166,1,35.9022098,129.0024111,경상북도 영천시청,사회복지과,054-330-6178,2025-11-17
274,북안면,유상2리 경로당,경상북도 영천시 북안면 유상길 373,경상북도 영천시 북안면 용계리 424-4,1,35.8699739,129.0004159,경상북도 영천시청,사회복지과,054-330-6178,2025-11-17
275,북안면,반정2리 경로당,경상북도 영천시 북안면 반정2길 62,경상북도 영천시 북안면 옥천리 152-1,2,35.8975025,129.0098188,경상북도 영천시청,사회복지과,054-330-6178,2025-11-17
276,북안면,내포리 경로당,경상북도 영천시 북안면 개미곡길 3,경상북도 영천시 북안면 도천리 167,1,35.8973459,129.0237406,경상북도 영천시청,사회복지과,054-330-6178,2025-11-17
277,북안면,서당리 경로당,경상북도 영천시 북안면 북안서당길 85-4,경상북도 영천시 북안면 효리 198-1,1,35.8781564,129.0235612,경상북도 영천시청,사회복지과,054-330-6178,2025-11-17
278,북안면,용계2 (새불) 경로당,경상북도 영천시 북안면 새불길 55-81,경상북도 영천시 북안면 신촌리 268,1,35.9221106,129.0459879,경상북도 영천시청,사회복지과,054-330-6178,2025-11-17
279,북안면,옥천리 경로당,경상북도 영천시 북안면 옥천길 26,경상북도 영천시 북안면 원당리 200,1,35.9371971,129.0125566,경상북도 영천시청,사회복지과,054-330-6178,2025-11-17
280,북안면,도천2리 경로당,경상북도 영천시 북안면 연당길 65,경상북도 영천시 북안면 반정리 56-5,2,35.9309249,129.0027081,경상북도 영천시청,사회복지과,054-330-6178,2025-11-17
281,북안면,효리 경로당,경상북도 영천시 북안면 효동길 67,경상북도 영천시 북안면 당리 715-1,1,35.8594844,128.991864,경상북도 영천시청,사회복지과,054-330-6178,2025-11-17
282,북안면,신촌리 경로당,경상북도 영천시 북안면 돈암길 309,경상북도 영천시 북안면 임포리 244,1,35.9183127,129.0106173,경상북도 영천시청,사회복지과,054-330-6178,2025-11-17
283,북안면,원당리 경로당,경상북도 영천시 북안면 대원당길 91,경상북도 영천시 북안면 원당리 97,1,35.93720289,129.0125566,경상북도 영천시청,사회복지과,054-330-6178,2025-11-17
284,북안면,반정3리 경로당,경상북도 영천시 북안면 돌할매로 41-26,경상북도 영천시 북안면 명주리 573-36,1,35.8747192,128.9967337,경상북도 영천시청,사회복지과,054-330-6178,2025-11-17
285,북안면,당2리 경로당,경상북도 영천시 북안면 중이길 12,경상북도 영천시 북안면 반계리 122-3,1,35.9267713,129.0062083,경상북도 영천시청,사회복지과,054-330-6178,2025-11-17
286,북안면,임포 범진A 경로당,경상북도 영천시 북안면 임포역길 86(범진아파트),경상북도 영천시 대창면 직천리 367-1,1,35.874698,128.9615173,경상북도 영천시청,사회복지과,054-330-6178,2025-11-17
287,북안면,임포1리 경로당,경상북도 영천시 북안면 팔암길 14,경상북도 영천시 대창면 운천리 515-3,1,35.8664095,128.9535179,경상북도 영천시청,사회복지과,054-330-6178,2025-11-17
288,북안면,명주리 경로당,경상북도 영천시 북안면 새불길 3,경상북도 영천시 대창면 운천리 861-1,1,35.8632437,128.9471854,경상북도 영천시청,사회복지과,054-330-6178,2025-11-17
289,북안면,반계리 경로당,경상북도 영천시 북안면 개미곡길 66-8,경상북도 영천시 대창면 용전리 138-1,1,35.8706877,128.9502394,경상북도 영천시청,사회복지과,054-330-6178,2025-11-17
290,북안면,팔암경로당,경상북도 영천시 북안면 팔암길 58,경상북도 영천시 대창면 어방리 274,1,35.8618432,128.9392532,경상북도 영천시청,사회복지과,054-330-6178,2025-11-17
291,대창면,직천리 경로당,경상북도 영천시 대창면 정동마을길 5,경상북도 영천시 대창면 오길리 571-1,1,35.865511,128.9282969,경상북도 영천시청,사회복지과,054-330-6178,2025-11-17
292,대창면,운천1리 경로당,경상북도 영천시 대창면 임하길 6,경상북도 영천시 대창면 오길리 82,1,35.8767388,128.9393781,경상북도 영천시청,사회복지과,054-330-6178,2025-11-17
293,대창면,운천2리 경로당,경상북도 영천시 대창면 운잠길 23,경상북도 영천시 대창면 용호리 833,1,35.8489251,128.9369289,경상북도 영천시청,사회복지과,054-330-6178,2025-11-17
294,대창면,용전리 경로당,경상북도 영천시 대창면 한들길 53,경상북도 영천시 대창면 신광리 161,2,35.8483341,128.9251365,경상북도 영천시청,사회복지과,054-330-6178,2025-11-17
295,대창면,어방리 경로당,경상북도 영천시 대창면 효원길 9-3,경상북도 영천시 대창면 신광리 988,1,35.8476682,128.9159405,경상북도 영천시청,사회복지과,054-330-6178,2025-11-17
296,대창면,오길1리 경로당,경상북도 영천시 대창면 용두길 40,경상북도 영천시 대창면 신광리 709-5,1,35.8568619,128.9209597,경상북도 영천시청,사회복지과,054-330-6178,2025-11-17
297,대창면,오길2리 경로당,경상북도 영천시 대창면 채산길 182,경상북도 영천시 대창면 조곡리 782-1,2,35.858754,128.9071807,경상북도 영천시청,사회복지과,054-330-6178,2025-11-17
298,대창면,용호리 경로당,경상북도 영천시 대창면 영지길 325-11,경상북도 영천시 대창면 조곡리 247,1,35.8695246,128.9050124,경상북도 영천시청,사회복지과,054-330-6178,2025-11-17
299,대창면,신광1리 경로당,경상북도 영천시 대창면 계상길 13-2,경상북도 영천시 대창면 구지리 561-5,2,35.8549842,128.8906283,경상북도 영천시청,사회복지과,054-330-6178,2025-11-17
300,대창면,신광효일 경로당,경상북도 영천시 대창면 효일길 113,경상북도 영천시 대창면 구지리 1247-3,1,35.8625134,128.8790379,경상북도 영천시청,사회복지과,054-330-6178,2025-11-17
301,대창면,신광2리 경로당,경상북도 영천시 대창면 영지길 109-1,경상북도 영천시 대창면 대재리 644,1,35.8772275,128.9023237,경상북도 영천시청,사회복지과,054-330-6178,2025-11-17
302,대창면,조곡리 경로당,경상북도 영천시 대창면 조곡안길 90,경상북도 영천시 대창면 사리리 146,1,35.8793095,128.884629,경상북도 영천시청,사회복지과,054-330-6178,2025-11-17
303,대창면,건지발 경로당,경상북도 영천시 대창면 금창로 785,경상북도 영천시 대창면 사리리 222-6,2,35.8760712,128.8719185,경상북도 영천시청,사회복지과,054-330-6178,2025-11-17
304,대창면,구지리 경로당,경상북도 영천시 대창면 용대로 804-1,경상북도 영천시 대창면 대창리 1076-11,2,35.8747175,128.8966419,경상북도 영천시청,사회복지과,054-330-6178,2025-11-17
305,대창면,장곡 경로당,경상북도 영천시 대창면 장곡길 153-1,경상북도 영천시 대창면 대창리 1076-11,2,35.8747175,128.8966419,경상북도 영천시청,사회복지과,054-330-6178,2025-11-17
306,대창면,대재리 경로당,경상북도 영천시 대창면 양지촌길 18,경상북도 영천시 대창면 대창리 1041-5,1,35.8742504,128.8965591,경상북도 영천시청,사회복지과,054-330-6178,2025-11-17
307,대창면,사리1리 경로당,경상북도 영천시 대창면 선진길 43,경상북도 영천시 대창면 대창리 694-5,2,35.8821367,128.8926887,경상북도 영천시청,사회복지과,054-330-6178,2025-11-17
308,대창면,사리2리 경로당,경상북도 영천시 대창면 금박로 810,경상북도 영천시 대창면 대창리 539-2,1,35.8812112,128.8865882,경상북도 영천시청,사회복지과,054-330-6178,2025-11-17
309,대창면,대창1리 경로당,경상북도 영천시 대창면 대창시장길 20,경상북도 영천시 대창면 강회리 204-10,1,35.8920963,128.8868148,경상북도 영천시청,사회복지과,054-330-6178,2025-11-17
310,대창면,대창면부인 경로당,경상북도 영천시 대창면 대창시장길 19-3,경상북도 영천시 대창면 강회리 432-1,1,35.8964401,128.8830716,경상북도 영천시청,사회복지과,054-330-6178,2025-11-17
311,대창면,대창면분회 경로당,경상북도 영천시 대창면 대창시장길 18-6,경상북도 영천시 대창면 병암리 421,1,35.8911592,128.8986615,경상북도 영천시청,사회복지과,054-330-6178,2025-11-17
312,대창면,대창2리 경로당,경상북도 영천시 대창면 신당길 15,경상북도 영천시 조교동 381,2,35.9771785,128.9629617,경상북도 영천시청,사회복지과,054-330-6178,2025-11-17
313,대창면,신당 경로당,경상북도 영천시 대창면 신당길 61-5,경상북도 영천시 조교동 883-171,1,35.968474,128.9602583,경상북도 영천시청,사회복지과,054-330-6178,2025-11-17
314,대창면,강회리 경로당,경상북도 영천시 대창면 강회2길 24,경상북도 영천시 망정동 214,1,35.9771492,128.9518421,경상북도 영천시청,사회복지과,054-330-6178,2025-11-17
315,대창면,강회마음 경로당,경상북도 영천시 대창면 강회3길 70,경상북도 영천시 야사동 183-5,1,35.9745893,128.9456033,경상북도 영천시청,사회복지과,054-330-6178,2025-11-17
316,대창면,병암리 경로당,경상북도 영천시 대창면 병암길 91,경상북도 영천시 야사동 154-89,1,35.9754729,128.9436146,경상북도 영천시청,사회복지과,054-330-6178,2025-11-17
317,동부동,조교,경상북도 영천시 조흔달1길 36(조교동),경상북도 영천시 야사동 429-2,1,35.9798734,128.9471089,경상북도 영천시청,사회복지과,054-330-6178,2025-11-17
318,동부동,장천,경상북도 영천시 장천1길 40(조교동),경상북도 영천시 야사동 186-4,1,35.9736949,128.946677,경상북도 영천시청,사회복지과,054-330-6178,2025-11-17
319,동부동,망정,경상북도 영천시 망정3길 27(망정동),경상북도 영천시 야사동 187-7,1,35.972781,128.9472448,경상북도 영천시청,사회복지과,054-330-6178,2025-11-17
320,동부동,동부동4통,경상북도 영천시 야사1길 11(야사동),경상북도 영천시 야사동 301,1,35.9730289,128.9412826,경상북도 영천시청,사회복지과,054-330-6178,2025-11-17
321,동부동,동부동5통,경상북도 영천시 새말1길 46(야사동),경상북도 영천시 야사동 311,1,35.9739194,128.9405902,경상북도 영천시청,사회복지과,054-330-6178,2025-11-17
322,동부동,안야사,경상북도 영천시 안야사길 57(야사동),경상북도 영천시 야사동 120,1,35.9776972,128.944312,경상북도 영천시청,사회복지과,054-330-6178,2025-11-17
323,동부동,문화,경상북도 영천시 영천고2길 9(야사동),경상북도 영천시 야사동 120,1,35.9776972,128.944312,경상북도 영천시청,사회복지과,054-330-6178,2025-11-17
324,동부동,행운3길,경상북도 영천시 문화새길 39(야사동),경상북도 영천시 야사동 120,1,35.9776972,128.944312,경상북도 영천시청,사회복지과,054-330-6178,2025-11-17
325,동부동,야사주공1차,경상북도 영천시 상록1길 9(야사동),경상북도 영천시 언하동 146-1,1,35.9868426,128.9692638,경상북도 영천시청,사회복지과,054-330-6178,2025-11-17
326,동부동,야사주공2차,경상북도 영천시 상록4길 25(야사동),경상북도 영천시 언하동 372-9,1,35.9845885,128.9625494,경상북도 영천시청,사회복지과,054-330-6178,2025-11-17
327,동부동,야사주공3차,경상북도 영천시 충효로 147(야사동),경상북도 영천시 신기동 산5-11,1,35.9979009,128.9574074,경상북도 영천시청,사회복지과,054-330-6178,2025-11-17
328,동부동,야사주공4차,경상북도 영천시 충효로 147(야사동),경상북도 영천시 망정동 151-9,1,35.9745079,128.9513491,경상북도 영천시청,사회복지과,054-330-6178,2025-11-17
329,동부동,야사주공5차,경상북도 영천시 충효로 147(야사동),경상북도 영천시 야사동 92,1,35.9789967,128.9495767,경상북도 영천시청,사회복지과,054-330-6178,2025-11-17
330,동부동,언하1동,경상북도 영천시 새미길 121(언하동),경상북도 영천시 야사동 210-17,1,35.9719362,128.9469431,경상북도 영천시청,사회복지과,054-330-6178,2025-11-17
331,동부동,언하2동,경상북도 영천시 포은로 73(언하동),경상북도 영천시 야사동 216,1,35.9713168,128.9454855,경상북도 영천시청,사회복지과,054-330-6178,2025-11-17
332,동부동,신기,경상북도 영천시 상신기길 85(신기동),경상북도 영천시 야사동 211-4,1,35.9707732,128.9456176,경상북도 영천시청,사회복지과,054-330-6178,2025-11-17
333,동부동,망정17통,경상북도 영천시 미륵3길 27(망정동),경상북도 영천시 야사동 166-10,2,35.9745863,128.9435852,경상북도 영천시청,사회복지과,054-330-6178,2025-11-17
334,동부동,금성아파트,경상북도 영천시 망정1길 95(야사동),경상북도 영천시 야사동 335-38,1,35.9742315,128.9417116,경상북도 영천시청,사회복지과,054-330-6178,2025-11-17
335,동부동,문화새길,경상북도 영천시 문화새길 62-18(야사동),경상북도 영천시 망정동 177-1,1,35.976289,128.9496186,경상북도 영천시청,사회복지과,054-330-6178,2025-11-17
336,동부동,동남,경상북도 영천시 영천고1길 85-5(야사동),경상북도 영천시 야사동 331-13,2,35.9758008,128.9406558,경상북도 영천시청,사회복지과,054-330-6178,2025-11-17
337,동부동,유성타워,경상북도 영천시 영천고1길 76(야사동),경상북도 영천시 야사동 350-1,1,35.976496,128.9405033,경상북도 영천시청,사회복지과,054-330-6178,2025-11-17
338,동부동,야사,경상북도 영천시 상록4길 82(야사동),경상북도 영천시 야사동 350-1,1,35.976496,128.9405033,경상북도 영천시청,사회복지과,054-330-6178,2025-11-17
339,동부동,상록7길,경상북도 영천시 상록7길 20(야사동),경상북도 영천시 망정동 129,1,35.9735842,128.9493988,경상북도 영천시청,사회복지과,054-330-6178,2025-11-17
340,동부동,청호아파트,경상북도 영천시 망정2길 7-9(망정동),경상북도 영천시 망정동 129,1,35.9735842,128.9493988,경상북도 영천시청,사회복지과,054-330-6178,2025-11-17
341,동부동,동부동26통,경상북도 영천시 모란3길 11(야사동),경상북도 영천시 망정동 116,1,35.9721314,128.9503039,경상북도 영천시청,사회복지과,054-330-6178,2025-11-17
342,동부동,청구1차,경상북도 영천시 모란1길 18(야사동),경상북도 영천시 망정동 116,1,35.9721314,128.9503039,경상북도 영천시청,사회복지과,054-330-6178,2025-11-17
343,동부동,청구2차,경상북도 영천시 모란1길 18(야사동),경상북도 영천시 망정동 378-1,1,35.9828393,128.9530471,경상북도 영천시청,사회복지과,054-330-6178,2025-11-17
344,동부동,망정주공1차,"경상북도 영천시 동부로 40(망정동, 주공아파트)",경상북도 영천시 망정동 471,2,35.987427,128.9535857,경상북도 영천시청,사회복지과,054-330-6178,2025-11-17
345,동부동,망정주공2차,"경상북도 영천시 동부로 40(망정동, 주공아파트)",경상북도 영천시 야사동 202,2,35.9715244,128.9484217,경상북도 영천시청,사회복지과,054-330-6178,2025-11-17
346,동부동,망정주공3차,"경상북도 영천시 동부로 14(망정동, 주공아파트)",경상북도 영천시 망정동 462,2,35.9882773,128.9552439,경상북도 영천시청,사회복지과,054-330-6178,2025-11-17
347,동부동,망정주공4차,"경상북도 영천시 동부로 14(망정동, 주공아파트)",경상북도 영천시 망정동 325-3,5,35.9802446,128.9515577,경상북도 영천시청,사회복지과,054-330-6178,2025-11-17
348,동부동,휴먼시아5단지,경상북도 영천시 망정로 80(망정동),경상북도 영천시 망정동 461,1,35.9909501,128.954949,경상북도 영천시청,사회복지과,054-330-6178,2025-11-17
349,동부동,창신아파트,경상북도 영천시 창신1길 21(망정동),경상북도 영천시 야사동 671,1,35.9812139,128.9444817,경상북도 영천시청,사회복지과,054-330-6178,2025-11-17
350,동부동,우방아파트,경상북도 영천시 동부로 15(야사동),경상북도 영천시 야사동 288-30,1,35.9710705,128.940705,경상북도 영천시청,사회복지과,054-330-6178,2025-11-17
351,동부동,번영2길(청솔),경상북도 영천시 창신1길 22(망정동),경상북도 영천시 문외동 178-2,1,35.9700423,128.9364176,경상북도 영천시청,사회복지과,054-330-6178,2025-11-17
352,동부동,동부동46통,경상북도 영천시 망정1길 146유호빌리지102102(망정동),경상북도 영천시 문내동 89,1,35.9683849,128.9337504,경상북도 영천시청,사회복지과,054-330-6178,2025-11-17
353,동부동,코아루,"경상북도 영천시 창신1길 42,102동1층(망정동)",경상북도 영천시 문내동 69,1,35.9696059,128.9323922,경상북도 영천시청,사회복지과,054-330-6178,2025-11-17
354,동부동,한신더휴영천 퍼스트아파트,"경상북도 영천시 망정1길 171,106동1층(야사동)",경상북도 영천시 창구동 149-1,1,35.9705305,128.9298497,경상북도 영천시청,사회복지과,054-330-6178,2025-11-17
355,동부동,보목경로당,경상북도 영천시 호국로 24-20,경상북도 영천시 과전동 25,1,35.9653462,128.9305694,경상북도 영천시청,사회복지과,054-330-6178,2025-11-17
356,중앙동,문외동,경상북도 영천시 동문길 114-6,경상북도 영천시 문외동 49-1,2,35.9735038,128.9396894,경상북도 영천시청,사회복지과,054-330-6178,2025-11-17
357,중앙동,문내부인,경상북도 영천시 동문1길 5-46,경상북도 영천시 문외동 49,1,35.9748924,128.9394875,경상북도 영천시청,사회복지과,054-330-6178,2025-11-17
358,중앙동,문내동,경상북도 영천시 옛군청2길 27-35,경상북도 영천시 문외동 9-9,2,35.9741459,128.9375671,경상북도 영천시청,사회복지과,054-330-6178,2025-11-17
359,중앙동,창구,경상북도 영천시 법원길 80,경상북도 영천시 문외동 49-2,5,35.9724413,128.9403665,경상북도 영천시청,사회복지과,054-330-6178,2025-11-17
360,중앙동,과전동,경상북도 영천시 창대서원2길32,경상북도 영천시 문외동 200,1,35.9738995,128.9352967,경상북도 영천시청,사회복지과,054-330-6178,2025-11-17
361,중앙동,신우맨션,경상북도 영천시 상록4길 5,경상북도 영천시 오미동 224,1,36.0007908,128.9417555,경상북도 영천시청,사회복지과,054-330-6178,2025-11-17
362,중앙동,무궁화타운,경상북도 영천시 충효로 97,경상북도 영천시 오미동 435,1,35.9843633,128.9356464,경상북도 영천시청,사회복지과,054-330-6178,2025-11-17
363,중앙동,문외동 행복,경상북도 영천시 청산2길 5,경상북도 영천시 중앙동 507-3,1,36.0057523,128.9183955,경상북도 영천시청,사회복지과,054-330-6178,2025-11-17
364,중앙동,영진궁전,경상북도 영천시 시청동길 8(영진궁전105204),경상북도 영천시 녹전동 385,1,36.0035194,128.9155134,경상북도 영천시청,사회복지과,054-330-6178,2025-11-17
365,중앙동,삼산무지개타운,경상북도 영천시 청산길 29,경상북도 영천시 녹전동 709-1,1,36.0106717,128.9142405,경상북도 영천시청,사회복지과,054-330-6178,2025-11-17
366,중앙동,오미1동,경상북도 영천시 삼귀길 220,경상북도 영천시 녹전동 723-2,1,36.0094548,128.914029,경상북도 영천시청,사회복지과,054-330-6178,2025-11-17
367,중앙동,오미2동,경상북도 영천시 야사오미길127-6,경상북도 영천시 도림동 404-1,1,36.0140806,128.9375495,경상북도 영천시청,사회복지과,054-330-6178,2025-11-17
368,중앙동,녹전1동,경상북도 영천시 녹전길 78-12,경상북도 영천시 도림동 1169-1,1,36.0085723,128.9311592,경상북도 영천시청,사회복지과,054-330-6178,2025-11-17
369,중앙동,녹전2동 석동,경상북도 영천시 석동1길 14,경상북도 영천시 도림동 698,1,36.0187886,128.9309854,경상북도 영천시청,사회복지과,054-330-6178,2025-11-17
370,중앙동,녹전3동,경상북도 영천시 명산길 171,경상북도 영천시 매산동 136-1,1,36.0234186,128.9232713,경상북도 영천시청,사회복지과,054-330-6178,2025-11-17
371,중앙동,녹전3동 부인,경상북도 영천시 조동길 23-86,경상북도 영천시 매산동 772-1,1,36.0183149,128.9183193,경상북도 영천시청,사회복지과,054-330-6178,2025-11-17
372,중앙동,도림1동,경상북도 영천시 직동길 285,경상북도 영천시 매산동 435,1,36.012227,128.9220503,경상북도 영천시청,사회복지과,054-330-6178,2025-11-17
373,중앙동,도림1동 직동,경상북도 영천시 직동길 117-14,경상북도 영천시 문내동 207,15,35.9716588,128.9307987,경상북도 영천시청,사회복지과,054-330-6178,2025-11-17
374,중앙동,도림2동,경상북도 영천시 토골길 30,경상북도 영천시 문내동 1-2,3,35.9750687,128.9316747,경상북도 영천시청,사회복지과,054-330-6178,2025-11-17
375,중앙동,매산1동,경상북도 영천시 매산뒷길 21-7,경상북도 영천시 문외동 384,20,35.9737986,128.9363258,경상북도 영천시청,사회복지과,054-330-6178,2025-11-17
376,중앙동,매산2동,경상북도 영천시 갈마일길 119-4,경상북도 영천시 교촌동 85,2,35.9688193,128.9292209,경상북도 영천시청,사회복지과,054-330-6178,2025-11-17
377,중앙동,하명,경상북도 영천시 하명길 54,경상북도 영천시 성내동 121,2,35.9651399,128.9274106,경상북도 영천시청,사회복지과,054-330-6178,2025-11-17
378,중앙동,문내주공아파트,경상북도 영천시 충효로 97,경상북도 영천시 성내동 205-2,1,35.9617487,128.9244531,경상북도 영천시청,사회복지과,054-330-6178,2025-11-17
379,중앙동,대동다숲,경상북도 영천시 중앙동1길102-10,경상북도 영천시 오수동 138-3,2,35.9604945,128.9167581,경상북도 영천시청,사회복지과,054-330-6178,2025-11-17
380,중앙동,센트럴,경상북도 영천시 충효로 39,경상북도 영천시 화룡동 181-2,2,35.9663918,128.9200282,경상북도 영천시청,사회복지과,054-330-6178,2025-11-17
381,서부동,교촌 경로당,경상북도 영천시 향교길 15-3(교촌동),경상북도 영천시 대전동 365-1,1,35.9869227,128.9155833,경상북도 영천시청,사회복지과,054-330-6178,2025-11-17
382,서부동,성내 경로당,경상북도 영천시 최무선로 247(성내동),경상북도 영천시 서산동 905-1,1,35.9773005,128.8858243,경상북도 영천시청,사회복지과,054-330-6178,2025-11-17
383,서부동,교동 경로당,경상북도 영천시 나루터길 11(성내동),경상북도 영천시 오수동 392-3,2,35.9538628,128.9179496,경상북도 영천시청,사회복지과,054-330-6178,2025-11-17
384,서부동,오수 경로당,경상북도 영천시 오수2길 43(오수동),경상북도 영천시 화룡동 182-3,5,35.9654416,128.920536,경상북도 영천시청,사회복지과,054-330-6178,2025-11-17
385,서부동,영화경로당,경상북도 영천시 양지길 2-36,경상북도 영천시 화룡동 740-2,2,35.9750634,128.9142056,경상북도 영천시청,사회복지과,054-330-6178,2025-11-17
386,서부동,대전1 경로당,경상북도 영천시 대전길 121(대전동),경상북도 영천시 대전동 595-4,1,35.9807271,128.9108778,경상북도 영천시청,사회복지과,054-330-6178,2025-11-17
387,서부동,서산 경로당,경상북도 영천시 서운길 179(서산동),경상북도 영천시 쌍계동 264-1,1,35.963447,128.9078833,경상북도 영천시청,사회복지과,054-330-6178,2025-11-17
388,서부동,영천농원 경로당,경상북도 영천시 유봉길 64(오수동),경상북도 영천시 서산동 429-1,1,35.9786171,128.898817,경상북도 영천시청,사회복지과,054-330-6178,2025-11-17
389,서부동,양지맨션 경로당,"경상북도 영천시 상아탑길 7-6(화룡동, 양지맨션)",경상북도 영천시 화룡동 201,1,35.9636985,128.9227619,경상북도 영천시청,사회복지과,054-330-6178,2025-11-17
390,서부동,화룡 경로당,경상북도 영천시 음지길 44(화룡동),경상북도 영천시 성내동 198-1,1,35.963043,128.925262,경상북도 영천시청,사회복지과,054-330-6178,2025-11-17
391,서부동,대전2동 경로당,경상북도 영천시 대전길 37(대전동),경상북도 영천시 완산동 906-36,1,35.9619134,128.9380621,경상북도 영천시청,사회복지과,054-330-6178,2025-11-17
392,서부동,쌍계 경로당,경상북도 영천시 쌍계길 77-2(쌍계동),경상북도 영천시 완산동 1062-7,2,35.9645974,128.935299,경상북도 영천시청,사회복지과,054-330-6178,2025-11-17
393,서부동,삼산 경로당,경상북도 영천시 삼산마을길 60(서산동),경상북도 영천시 완산동 565,1,35.9629922,128.9529438,경상북도 영천시청,사회복지과,054-330-6178,2025-11-17
394,서부동,태평스카이 경로당,경상북도 영천시 장수로 10(화룡동),경상북도 영천시 완산동 988-4,2,35.965298,128.9362961,경상북도 영천시청,사회복지과,054-330-6178,2025-11-17
395,서부동,성내 장수 경로당,경상북도 영천시 성내1길 20(성내동),경상북도 영천시 완산동 1009-1,5,35.9670602,128.9404291,경상북도 영천시청,사회복지과,054-330-6178,2025-11-17
396,완산동,완산 8통 9통 경로당,경상북도 영천시 완산중앙4길 13(완산동),경상북도 영천시 완산동 438-1,2,35.960231,128.9529017,경상북도 영천시청,사회복지과,054-330-6178,2025-11-17
397,완산동,남부 경로당,경상북도 영천시 강남2길 7(완산동),경상북도 영천시 완산동 966-17,3,35.9649174,128.9400256,경상북도 영천시청,사회복지과,054-330-6178,2025-11-17
398,완산동,완산1통 경로당,경상북도 영천시 바깥완산길 89(완산동),경상북도 영천시 완산동 1094-14,3,35.9617056,128.9341984,경상북도 영천시청,사회복지과,054-330-6178,2025-11-17
399,완산동,완산청구하이츠 경로당,"경상북도 영천시 강남길 31(완산동,완산청구하이츠)",경상북도 영천시 완산동 938-10,1,35.9607215,128.9400834,경상북도 영천시청,사회복지과,054-330-6178,2025-11-17
400,완산동,완산궁전 경로당,"경상북도 영천시 완산6길 29, 103동 107호(완산동, 궁전맨션)",경상북도 영천시 완산동 1460,24,35.9648196,128.9396324,경상북도 영천시청,사회복지과,054-330-6178,2025-11-17
401,완산동,완산2통 경로당,경상북도 영천시 안완산길 81(완산동),경상북도 영천시 완산동 1436,1,35.9648196,128.9396324,경상북도 영천시청,사회복지과,054-330-6178,2025-11-17
402,완산동,완산3통 경로당,경상북도 영천시 완산2길 24(완산동),경상북도 영천시 완산동 1470,2,35.9648196,128.9396324,경상북도 영천시청,사회복지과,054-330-6178,2025-11-17
403,완산동,완산10통 경로당,경상북도 영천시 구읍2길 16-3(완산동),경상북도 영천시 완산동 1437,25,35.9648196,128.9396324,경상북도 영천시청,사회복지과,054-330-6178,2025-11-17
404,완산동,완산7통 경로당,경상북도 영천시 약전1길 17(완산동),경상북도 영천시 도동 542-10,2,35.9413465,128.9279416,경상북도 영천시청,사회복지과,054-330-6178,2025-11-17
405,완산동,미소지움1차 경로당,경상북도 영천시 완산5길 25,경상북도 영천시 도동 115-9,2,35.9408825,128.9318707,경상북도 영천시청,사회복지과,054-330-6178,2025-11-17
406,완산동,이편한세상 1단지경로당,경상북도 영천시 완산9길 15 이편한세상 1단지,경상북도 영천시 금노동 111,1,35.9517788,128.9414872,경상북도 영천시청,사회복지과,054-330-6178,2025-11-17
407,완산동,미소지움 프리미엄 경로당,경상북도 영천시 완산5길 111,경상북도 영천시 금노동 556-7,2,35.9622525,128.9278369,경상북도 영천시청,사회복지과,054-330-6178,2025-11-17
408,완산동,이편한세상 2단지경로당,경상북도 영천시 완산9길 16,경상북도 영천시 금노동 540-9,2,35.9608678,128.9305601,경상북도 영천시청,사회복지과,054-330-6178,2025-11-17
409,남부동,도동1통경로당,경상북도 영천시 도동구역길 37 (도동),경상북도 영천시 금노동 604-25,1,35.9593559,128.9313128,경상북도 영천시청,사회복지과,054-330-6178,2025-11-17
410,남부동,도동2통경로당,경상북도 영천시 상산길 42 (도동),경상북도 영천시 금노동 372-51,2,35.9568124,128.9325988,경상북도 영천시청,사회복지과,054-330-6178,2025-11-17
411,남부동,쇠느리경로당,경상북도 영천시 쇠늘못안길 132 (금노동),경상북도 영천시 범어동 445-1,1,35.9467808,128.9681602,경상북도 영천시청,사회복지과,054-330-6178,2025-11-17
412,남부동,금노4통경로당,경상북도 영천시 담안1길 29 (금노동),경상북도 영천시 범어동 765-1,1,35.9437944,128.9596881,경상북도 영천시청,사회복지과,054-330-6178,2025-11-17
413,남부동,금노5통 6통경로당,경상북도 영천시 담안4길 42-10 (금노동),경상북도 영천시 작산동 197-3,1,35.9425127,128.9530159,경상북도 영천시청,사회복지과,054-330-6178,2025-11-17
414,남부동,금노7통경로당,경상북도 영천시 담안7길 21 (금노동),경상북도 영천시 작산동 154-1,1,35.9417531,128.951525,경상북도 영천시청,사회복지과,054-330-6178,2025-11-17
415,남부동,금노8통경로당,경상북도 영천시 천문로 208-13 (금노동),경상북도 영천시 봉동 673-11,1,35.9333483,128.9436856,경상북도 영천시청,사회복지과,054-330-6178,2025-11-17
416,남부동,범어경로당,경상북도 영천시 범어2길 187 (범어동),경상북도 영천시 도남동 559,1,35.9352648,128.9361591,경상북도 영천시청,사회복지과,054-330-6178,2025-11-17
417,남부동,범어진옥경로당,경상북도 영천시 범어2길 3-3 (범어동),경상북도 영천시 도남동 66,1,35.934074,128.9399917,경상북도 영천시청,사회복지과,054-330-6178,2025-11-17
418,남부동,작산경로당,경상북도 영천시 한방로 227-139 (작산동),경상북도 영천시 본촌동 639,1,35.9252653,128.9522804,경상북도 영천시청,사회복지과,054-330-6178,2025-11-17
419,남부동,작산11통경로당,경상북도 영천시 한방로 223-4 (작산동),경상북도 영천시 채신동 503,1,35.9132298,128.9566753,경상북도 영천시청,사회복지과,054-330-6178,2025-11-17
420,남부동,봉동경로당,경상북도 영천시 봉동2길 23-60 (봉동),경상북도 영천시 남부동 319-6,1,35.9024377,128.9599596,경상북도 영천시청,사회복지과,054-330-6178,2025-11-17
421,남부동,도남경로당,경상북도 영천시 칠백로 843 (도남동),경상북도 영천시 봉동 805,1,35.9340248,128.9578594,경상북도 영천시청,사회복지과,054-330-6178,2025-11-17
422,남부동,도남윗마을경로당,경상북도 영천시 도남길 40 (도남동),경상북도 영천시 신녕면 매양리 309,1,36.0404856,128.7806174,경상북도 영천시청,사회복지과,054-330-6178,2025-11-17
423,남부동,본촌경로당,경상북도 영천시 예실큰길 4-15 (본촌동),경상북도 영천시 화북면 죽전리 1039,1,36.1502384,128.8979719,경상북도 영천시청,사회복지과,054-330-6178,2025-11-17
424,남부동,채신경로당,경상북도 영천시 영천산단로 485 (채신동),경상북도 영천시 완산동 906-36,1,35.9619134,128.9380621,경상북도 영천시청,사회복지과,054-330-6178,2025-11-17
425,남부동,괴연경로당,경상북도 영천시 신성일로 474,경상북도 영천시 화남면 사천리 산78-5,1,36.0579296,128.9186317,경상북도 영천시청,사회복지과,054-330-6178,2025-11-17
426,남부동,가와인경로당,"경상북도 영천시 봉동1길 51 , 커뮤니티 센터 2층",경상북도 영천시 봉동 805번지,2,35.93343476,128.9422658,경상북도 영천시청,사회복지과,054-330-6178,2025-11-17
