연번,상호명,도로명주소,전화번호,위도,경도
1,노리파크 영천점,"경상북도 영천시 망정1길 174, 3층 301,302호 (망정동, 정암빌딩)",054-336-3431,35.98132575,128.95170103
2,키즈몽,"경상북도 영천시 장천길 5, 2층 201,202,203호 (조교동)",054-336-9658,35.97059483,128.95096734
3,아이팡팡 키즈랜드,"경상북도 영천시 영화로 330, 2층 (조교동)",054-338-3335,35.97143191,128.95124330
4,말문화복합센터,"경상북도 영천시 삼밭골길 107, 말문화복합센터 1층 (야사동)",054-331-5583,35.98939824,128.93982933
5,배롱집,경상북도 영천시 청통면 장수로 438,,35.99336879,128.89507932
6,캠핑인더선,경상북도 영천시 청통면 청통로 569-8,,35.99392149,128.83354600
